{
   "type": "FeatureCollection",
   "features": [
  {
    "type": "Feature",
    "geometry": {
       "type": "Point",
       "coordinates":  [ -1.96317,7.40801 ]
    },
    "properties": {
    "Region":"Ashanti",
    "District":"Offinso North",
    "FacilityName":"A.M.E Zion Clinic",
    "Type":"Clinic",
    "Town":"Afrancho",
    "Ownership":"CHAG"
    }
  },
  {
    "type": "Feature",
    "geometry": {
       "type": "Point",
       "coordinates":  [ -1.58592,6.46312 ]
    },
    "properties": {
    "Region":"Ashanti",
    "District":"Bekwai Municipal",
    "FacilityName":"Abenkyiman Clinic",
    "Type":"Clinic",
    "Town":"Anwiankwanta",
    "Ownership":"Private"
    }
  },
  {
    "type": "Feature",
    "geometry": {
       "type": "Point",
       "coordinates":  [ -1.34982,6.22393 ]
    },
    "properties": {
    "Region":"Ashanti",
    "District":"Adansi North",
    "FacilityName":"Aboabo Health Centre",
    "Type":"Health Centre",
    "Town":"Aboabo No 2",
    "Ownership":"Government"
    }
  },
  {
    "type": "Feature",
    "geometry": {
       "type": "Point",
       "coordinates":  [ -1.61098,6.84177 ]
    },
    "properties": {
    "Region":"Ashanti",
    "District":"Afigya-Kwabre",
    "FacilityName":"Aboabogya Health Centre",
    "Type":"Health Centre",
    "Town":"Aboabogya",
    "Ownership":"Government"
    }
  },
  {
    "type": "Feature",
    "geometry": {
       "type": "Point",
       "coordinates":  [ -1.61098,6.84177 ]
    },
    "properties": {
    "Region":"Ashanti",
    "District":"Kwabre",
    "FacilityName":"Aboaso Health Centre",
    "Type":"Health Centre",
    "Town":"Aboaso",
    "Ownership":"Government"
    }
  },
  {
    "type": "Feature",
    "geometry": {
       "type": "Point",
       "coordinates":  [ -1.73294,7.12986 ]
    },
    "properties": {
    "Region":"Ashanti",
    "District":"Offinso North",
    "FacilityName":"Aboffour Health Centre",
    "Type":"Health Centre",
    "Town":"Aboffour",
    "Ownership":"Government"
    }
  },
  {
    "type": "Feature",
    "geometry": {
       "type": "Point",
       "coordinates":  [ -2,7 ]
    },
    "properties": {
    "Region":"Ashanti",
    "District":"Atwima-Nwabiagya",
    "FacilityName":"Abuakwa Maternity Home",
    "Type":"Maternity Home",
    "Town":"Abuakwa",
    "Ownership":"Private"
    }
  },
  {
    "type": "Feature",
    "geometry": {
       "type": "Point",
       "coordinates":  [ -1.67662,6.66133 ]
    },
    "properties": {
    "Region":"Ashanti",
    "District":"Atwima-Kwanwoma",
    "FacilityName":"Aburaso Methodist clinic",
    "Type":"Clinic",
    "Town":"Aburaso",
    "Ownership":"CHAG"
    }
  },
  {
    "type": "Feature",
    "geometry": {
       "type": "Point",
       "coordinates":  [ -1.31004,6.45543 ]
    },
    "properties": {
    "Region":"Ashanti",
    "District":"Ejisu-Juaben Municipal",
    "FacilityName":"Achiase Health Centre",
    "Type":"Health Centre",
    "Town":"Achiase",
    "Ownership":"Government"
    }
  },
  {
    "type": "Feature",
    "geometry": {
       "type": "Point",
       "coordinates":  [ -1.40278,7.25163 ]
    },
    "properties": {
    "Region":"Ashanti",
    "District":"Mampong Municipal",
    "FacilityName":"Adidwan Health Centre",
    "Type":"Health Centre",
    "Town":"Adidwan",
    "Ownership":"Government"
    }
  },
  {
    "type": "Feature",
    "geometry": {
       "type": "Point",
       "coordinates":  [ -1.92588,6.33659 ]
    },
    "properties": {
    "Region":"Ashanti",
    "District":"Amansie West",
    "FacilityName":"Adimposo CHPS",
    "Type":"CHPS",
    "Town":"Adimposo",
    "Ownership":"Government"
    }
  },
  {
    "type": "Feature",
    "geometry": {
       "type": "Point",
       "coordinates":  [ -1.19202,6.61879 ]
    },
    "properties": {
    "Region":"Ashanti",
    "District":"Asante-Akim North Municipal",
    "FacilityName":"Adom Hospital",
    "Type":"Hospital",
    "Town":"Akratiebesa",
    "Ownership":"Private"
    }
  },
  {
    "type": "Feature",
    "geometry": {
       "type": "Point",
       "coordinates":  [ -1.87334,6.88364 ]
    },
    "properties": {
    "Region":"Ashanti",
    "District":"Ahafo-Ano South",
    "FacilityName":"Adom Maternity Home",
    "Type":"Maternity Home",
    "Town":"Adinyana",
    "Ownership":"Private"
    }
  },
  {
    "type": "Feature",
    "geometry": {
       "type": "Point",
       "coordinates":  [ -1.53933,6.80813 ]
    },
    "properties": {
    "Region":"Ashanti",
    "District":"Afigya-Kwabre",
    "FacilityName":"Adwumakase Kese Health Centre",
    "Type":"Health Centre",
    "Town":"Adwumakase Kese",
    "Ownership":"Government"
    }
  },
  {
    "type": "Feature",
    "geometry": {
       "type": "Point",
       "coordinates":  [ -1.50873,6.94912 ]
    },
    "properties": {
    "Region":"Ashanti",
    "District":"Sekyere South",
    "FacilityName":"Afamaso Maternity Home",
    "Type":"Maternity Home",
    "Town":"Afamaso",
    "Ownership":"Private"
    }
  },
  {
    "type": "Feature",
    "geometry": {
       "type": "Point",
       "coordinates":  [ -1.12162,7.14472 ]
    },
    "properties": {
    "Region":"Ashanti",
    "District":"Sekyere Central",
    "FacilityName":"Aframso Health Centre",
    "Type":"Health Centre",
    "Town":"Aframso No.3",
    "Ownership":"Government"
    }
  },
  {
    "type": "Feature",
    "geometry": {
       "type": "Point",
       "coordinates":  [ -1.59589,6.81527 ]
    },
    "properties": {
    "Region":"Ashanti",
    "District":"Afigya-Kwabre",
    "FacilityName":"Afrancho Health Centre",
    "Type":"Health Centre",
    "Town":"Afrancho",
    "Ownership":"Government"
    }
  },
  {
    "type": "Feature",
    "geometry": {
       "type": "Point",
       "coordinates":  [ -1.08529,6.79618 ]
    },
    "properties": {
    "Region":"Ashanti",
    "District":"Asante-Akim North Municipal",
    "FacilityName":"Agogo Presby Hospital",
    "Type":"Hospital",
    "Town":"Agogo",
    "Ownership":"CHAG"
    }
  },
  {
    "type": "Feature",
    "geometry": {
       "type": "Point",
       "coordinates":  [ -1.49759,6.93605 ]
    },
    "properties": {
    "Region":"Ashanti",
    "District":"Sekyere South",
    "FacilityName":"Agona Health Centre",
    "Type":"Health Centre",
    "Town":"Agona",
    "Ownership":"Government"
    }
  },
  {
    "type": "Feature",
    "geometry": {
       "type": "Point",
       "coordinates":  [ -1.38159,6.67522 ]
    },
    "properties": {
    "Region":"Ashanti",
    "District":"Ejisu-Juaben Municipal",
    "FacilityName":"Agyenkwa Clinic",
    "Type":"Clinic",
    "Town":"Hwireso",
    "Ownership":"Private"
    }
  },
  {
    "type": "Feature",
    "geometry": {
       "type": "Point",
       "coordinates":  [ -1.67103,6.20898 ]
    },
    "properties": {
    "Region":"Ashanti",
    "District":"Obuasi Municipal",
    "FacilityName":"Agyenkwa Clinic",
    "Type":"Clinic",
    "Town":"New  Estate-Obuasi",
    "Ownership":"Private"
    }
  },
  {
    "type": "Feature",
    "geometry": {
       "type": "Point",
       "coordinates":  [ -1.64978,6.62597 ]
    },
    "properties": {
    "Region":"Ashanti",
    "District":"Atwima-Kwanwoma",
    "FacilityName":"Ahenema kokoben Health Centre",
    "Type":"Health Centre",
    "Town":"Ahenema kokoben",
    "Ownership":"Government"
    }
  },
  {
    "type": "Feature",
    "geometry": {
       "type": "Point",
       "coordinates":  [ -1.64009,6.87155 ]
    },
    "properties": {
    "Region":"Ashanti",
    "District":"Afigya-Kwabre",
    "FacilityName":"Ahenkro Health Centre",
    "Type":"Health Centre",
    "Town":"Ahenkro",
    "Ownership":"Government"
    }
  },
  {
    "type": "Feature",
    "geometry": {
       "type": "Point",
       "coordinates":  [ -1.38366,6.84534 ]
    },
    "properties": {
    "Region":"Ashanti",
    "District":"Sekyere East",
    "FacilityName":"Ahmadiya Muslim Hospital",
    "Type":"Hospital",
    "Town":"Effiduase",
    "Ownership":"Private"
    }
  },
  {
    "type": "Feature",
    "geometry": {
       "type": "Point",
       "coordinates":  [ -1.53649,6.50986 ]
    },
    "properties": {
    "Region":"Ashanti",
    "District":"Bekwai Municipal",
    "FacilityName":"Ahmadiyaa Mission Hospital",
    "Type":"Hospital",
    "Town":"Kokofu",
    "Ownership":"Private"
    }
  },
  {
    "type": "Feature",
    "geometry": {
       "type": "Point",
       "coordinates":  [ -1.57071,6.45491 ]
    },
    "properties": {
    "Region":"Ashanti",
    "District":"Bekwai Municipal",
    "FacilityName":"Ahwene Memorial Hospital",
    "Type":"Hospital",
    "Town":"Bekwai",
    "Ownership":"Private"
    }
  },
  {
    "type": "Feature",
    "geometry": {
       "type": "Point",
       "coordinates":  [ -1.44993,5.96717 ]
    },
    "properties": {
    "Region":"Ashanti",
    "District":"Adansi South",
    "FacilityName":"Aim High Clinic",
    "Type":"Clinic",
    "Town":"Subin Camp",
    "Ownership":"Private"
    }
  },
  {
    "type": "Feature",
    "geometry": {
       "type": "Point",
       "coordinates":  [ -1.33583,6.85355 ]
    },
    "properties": {
    "Region":"Ashanti",
    "District":"Sekyere East",
    "FacilityName":"Akokuaso Health Centre",
    "Type":"Health Centre",
    "Town":"Akokuaso",
    "Ownership":"Government"
    }
  },
  {
    "type": "Feature",
    "geometry": {
       "type": "Point",
       "coordinates":  [ -1.53837,6.43966 ]
    },
    "properties": {
    "Region":"Ashanti",
    "District":"Bekwai Municipal",
    "FacilityName":"Akomaa Memorial Hospital",
    "Type":"Hospital",
    "Town":"Kortwia",
    "Ownership":"CHAG"
    }
  },
  {
    "type": "Feature",
    "geometry": {
       "type": "Point",
       "coordinates":  [ -1.96072,7.40581 ]
    },
    "properties": {
    "Region":"Ashanti",
    "District":"Offinso North",
    "FacilityName":"Akomadan Health Centre",
    "Type":"Health Centre",
    "Town":"Akomadan zongo",
    "Ownership":"Government"
    }
  },
  {
    "type": "Feature",
    "geometry": {
       "type": "Point",
       "coordinates":  [ -1.47621,6.15348 ]
    },
    "properties": {
    "Region":"Ashanti",
    "District":"Adansi North",
    "FacilityName":"Akrofrom Clinic",
    "Type":"Clinic",
    "Town":"New Akrofrom",
    "Ownership":"Private"
    }
  },
  {
    "type": "Feature",
    "geometry": {
       "type": "Point",
       "coordinates":  [ -1.60783,6.39651 ]
    },
    "properties": {
    "Region":"Ashanti",
    "District":"Amansie Central",
    "FacilityName":"Akrofrom Community Clinic",
    "Type":"Clinic",
    "Town":"Akrofrom",
    "Ownership":"Government"
    }
  },
  {
    "type": "Feature",
    "geometry": {
       "type": "Point",
       "coordinates":  [ -1.65387,6.12385 ]
    },
    "properties": {
    "Region":"Ashanti",
    "District":"Adansi South",
    "FacilityName":"Akrofrom Health Centre",
    "Type":"Health Centre",
    "Town":"Akrofrom",
    "Ownership":"Government"
    }
  },
  {
    "type": "Feature",
    "geometry": {
       "type": "Point",
       "coordinates":  [ -1.63224,6.29513 ]
    },
    "properties": {
    "Region":"Ashanti",
    "District":"Adansi North",
    "FacilityName":"Akrokerri Health Centre",
    "Type":"Health Centre",
    "Town":"Akrokerri",
    "Ownership":"Government"
    }
  },
  {
    "type": "Feature",
    "geometry": {
       "type": "Point",
       "coordinates":  [ -2,7 ]
    },
    "properties": {
    "Region":"Ashanti",
    "District":"Atwima-Nwabiagya",
    "FacilityName":"Akropong Health Centre",
    "Type":"Health Centre",
    "Town":"Akropong",
    "Ownership":"Government"
    }
  },
  {
    "type": "Feature",
    "geometry": {
       "type": "Point",
       "coordinates":  [ -2,7 ]
    },
    "properties": {
    "Region":"Ashanti",
    "District":"Atwima-Nwabiagya",
    "FacilityName":"Akropong Maternity Home",
    "Type":"Maternity Home",
    "Town":"Akropong",
    "Ownership":"Private"
    }
  },
  {
    "type": "Feature",
    "geometry": {
       "type": "Point",
       "coordinates":  [ -1.29292,6.09619 ]
    },
    "properties": {
    "Region":"Ashanti",
    "District":"Adansi South",
    "FacilityName":"Akutreso Health Centre",
    "Type":"Health Centre",
    "Town":"Akutreso",
    "Ownership":"Government"
    }
  },
  {
    "type": "Feature",
    "geometry": {
       "type": "Point",
       "coordinates":  [ -2.19887,6.99498 ]
    },
    "properties": {
    "Region":"Ashanti",
    "District":"Ahafo-Ano North",
    "FacilityName":"Akwasiase Dressing Station",
    "Type":"Clinic",
    "Town":"Akwasiase",
    "Ownership":"Quasi-Government"
    }
  },
  {
    "type": "Feature",
    "geometry": {
       "type": "Point",
       "coordinates":  [ -2.17134,6.99961 ]
    },
    "properties": {
    "Region":"Ashanti",
    "District":"Ahafo-Ano North",
    "FacilityName":"Alice Memorial Maternity Clinic",
    "Type":"Maternity Home",
    "Town":"Tepa",
    "Ownership":"Private"
    }
  },
  {
    "type": "Feature",
    "geometry": {
       "type": "Point",
       "coordinates":  [ -1.62881,6.19852 ]
    },
    "properties": {
    "Region":"Ashanti",
    "District":"Obuasi Municipal",
    "FacilityName":"All Souls Clinic",
    "Type":"Clinic",
    "Town":"Akaporiso",
    "Ownership":"Private"
    }
  },
  {
    "type": "Feature",
    "geometry": {
       "type": "Point",
       "coordinates":  [ -1.69553,6.08691 ]
    },
    "properties": {
    "Region":"Ashanti",
    "District":"Adansi South",
    "FacilityName":"Allen Health Clinic",
    "Type":"Clinic",
    "Town":"Wamasi",
    "Ownership":"Government"
    }
  },
  {
    "type": "Feature",
    "geometry": {
       "type": "Point",
       "coordinates":  [ -1.65044,6.19128 ]
    },
    "properties": {
    "Region":"Ashanti",
    "District":"Obuasi Municipal",
    "FacilityName":"Amansan Clinic",
    "Type":"Clinic",
    "Town":"Aboagye Krom",
    "Ownership":"Private"
    }
  },
  {
    "type": "Feature",
    "geometry": {
       "type": "Point",
       "coordinates":  [ -1.16254,6.77005 ]
    },
    "properties": {
    "Region":"Ashanti",
    "District":"Asante-Akim North Municipal",
    "FacilityName":"Amantenaman Health Centre",
    "Type":"Health Centre",
    "Town":"Nyinamponase",
    "Ownership":"Government"
    }
  },
  {
    "type": "Feature",
    "geometry": {
       "type": "Point",
       "coordinates":  [ -1.47187,6.79262 ]
    },
    "properties": {
    "Region":"Ashanti",
    "District":"Ejisu-Juaben Municipal",
    "FacilityName":"Amponsah Konadu Memorial Maternity Home",
    "Type":"Maternity Home",
    "Town":"Bonwire",
    "Ownership":"Private"
    }
  },
  {
    "type": "Feature",
    "geometry": {
       "type": "Point",
       "coordinates":  [ -1.73677,6.05519 ]
    },
    "properties": {
    "Region":"Ashanti",
    "District":"Adansi South",
    "FacilityName":"Ampunyasi Health Centre",
    "Type":"Health Centre",
    "Town":"Ampunyasi",
    "Ownership":"Government"
    }
  },
  {
    "type": "Feature",
    "geometry": {
       "type": "Point",
       "coordinates":  [ -2.19993,6.99542 ]
    },
    "properties": {
    "Region":"Ashanti",
    "District":"Ahafo-Ano North",
    "FacilityName":"Anane Aya Maternity Home",
    "Type":"Maternity Home",
    "Town":"Akwasiase",
    "Ownership":"Private"
    }
  },
  {
    "type": "Feature",
    "geometry": {
       "type": "Point",
       "coordinates":  [ -1.01533,6.91527 ]
    },
    "properties": {
    "Region":"Ashanti",
    "District":"Asante-Akim North Municipal",
    "FacilityName":"Ananekrom Health Centre",
    "Type":"Health Centre",
    "Town":"Ananekrom",
    "Ownership":"Government"
    }
  },
  {
    "type": "Feature",
    "geometry": {
       "type": "Point",
       "coordinates":  [ -1.52066,6.56615 ]
    },
    "properties": {
    "Region":"Ashanti",
    "District":"Bosomtwe",
    "FacilityName":"Anglican (Mobile) Eye Clinic",
    "Type":"Clinic",
    "Town":"Jachie",
    "Ownership":"CHAG"
    }
  },
  {
    "type": "Feature",
    "geometry": {
       "type": "Point",
       "coordinates":  [ -1.55999,6.61268 ]
    },
    "properties": {
    "Region":"Ashanti",
    "District":"Bosomtwe",
    "FacilityName":"Atonso/Agogo Fejiase clinic",
    "Type":"Clinic",
    "Town":"Feyiase",
    "Ownership":"Private"
    }
  },
  {
    "type": "Feature",
    "geometry": {
       "type": "Point",
       "coordinates":  [ -1.35365,6.53546 ]
    },
    "properties": {
    "Region":"Ashanti",
    "District":"Bosomtwe",
    "FacilityName":"Brodekwanu Methodis Clinic",
    "Type":"Clinic",
    "Town":"Brodekwanu",
    "Ownership":"CHAG"
    }
  },
  {
    "type": "Feature",
    "geometry": {
       "type": "Point",
       "coordinates":  [ -1.54404,6.57933 ]
    },
    "properties": {
    "Region":"Ashanti",
    "District":"Bosomtwe",
    "FacilityName":"CAMFAP Maternity Clinic",
    "Type":"Clinic",
    "Town":"New Kokobiriko (Abijan-Nkwant",
    "Ownership":"Private"
    }
  },
  {
    "type": "Feature",
    "geometry": {
       "type": "Point",
       "coordinates":  [ -1.52097,6.56598 ]
    },
    "properties": {
    "Region":"Ashanti",
    "District":"Bosomtwe",
    "FacilityName":"Jachie Health Centre",
    "Type":"Health Centre",
    "Town":"Jachie",
    "Ownership":"Government"
    }
  },
  {
    "type": "Feature",
    "geometry": {
       "type": "Point",
       "coordinates":  [ -1.47454,6.53752 ]
    },
    "properties": {
    "Region":"Ashanti",
    "District":"Bosomtwe",
    "FacilityName":"Kuntenase Government Hospital",
    "Type":"District Hospital",
    "Town":"Kuntenase",
    "Ownership":"Government"
    }
  },
  {
    "type": "Feature",
    "geometry": {
       "type": "Point",
       "coordinates":  [ -1.37362,6.48398 ]
    },
    "properties": {
    "Region":"Ashanti",
    "District":"Bosomtwe",
    "FacilityName":"Lake Bosomtwi Methodist Clinic",
    "Type":"Clinic",
    "Town":"Amakom",
    "Ownership":"CHAG"
    }
  },
  {
    "type": "Feature",
    "geometry": {
       "type": "Point",
       "coordinates":  [ -1.43022,6.56458 ]
    },
    "properties": {
    "Region":"Ashanti",
    "District":"Bosomtwe",
    "FacilityName":"Nyameani Methodist Clinic",
    "Type":"Clinic",
    "Town":"Nyameani",
    "Ownership":"CHAG"
    }
  },
  {
    "type": "Feature",
    "geometry": {
       "type": "Point",
       "coordinates":  [ -1.45151,6.59099 ]
    },
    "properties": {
    "Region":"Ashanti",
    "District":"Bosomtwe",
    "FacilityName":"Piase CHPS",
    "Type":"CHPS",
    "Town":"Piase",
    "Ownership":"Government"
    }
  },
  {
    "type": "Feature",
    "geometry": {
       "type": "Point",
       "coordinates":  [ -1.34849,6.51291 ]
    },
    "properties": {
    "Region":"Ashanti",
    "District":"Bosomtwe",
    "FacilityName":"SDA Clinic Konkoma",
    "Type":"Clinic",
    "Town":"Konkoma",
    "Ownership":"CHAG"
    }
  },
  {
    "type": "Feature",
    "geometry": {
       "type": "Point",
       "coordinates":  [ -1.56147,6.63159 ]
    },
    "properties": {
    "Region":"Ashanti",
    "District":"Bosomtwe",
    "FacilityName":"Sophia Maternity Home",
    "Type":"Maternity Home",
    "Town":"Esereso",
    "Ownership":"Private"
    }
  },
  {
    "type": "Feature",
    "geometry": {
       "type": "Point",
       "coordinates":  [ -1.54346,6.54056 ]
    },
    "properties": {
    "Region":"Ashanti",
    "District":"Bosomtwe",
    "FacilityName":"St. Marys Anglican Clinic",
    "Type":"Clinic",
    "Town":"Apinkra",
    "Ownership":"CHAG"
    }
  },
  {
    "type": "Feature",
    "geometry": {
       "type": "Point",
       "coordinates":  [ -1.51247,6.55872 ]
    },
    "properties": {
    "Region":"Ashanti",
    "District":"Bosomtwe",
    "FacilityName":"St. Micheal Hospital",
    "Type":"Hospital",
    "Town":"Pramso",
    "Ownership":"CHAG"
    }
  },
  {
    "type": "Feature",
    "geometry": {
       "type": "Point",
       "coordinates":  [ -1.53468,6.62487 ]
    },
    "properties": {
    "Region":"Ashanti",
    "District":"Bosomtwe",
    "FacilityName":"Tetrefu Health Centre",
    "Type":"Health Centre",
    "Town":"Tetrefu",
    "Ownership":"Government"
    }
  },
  {
    "type": "Feature",
    "geometry": {
       "type": "Point",
       "coordinates":  [ -1.4144827,6.5016785 ]
    },
    "properties": {
    "Region":"Ashanti",
    "District":"Bosomtwe",
    "FacilityName":"God's Grace Maternity Home",
    "Type":"Maternity Home",
    "Town":"Aputuagya",
    "Ownership":"Private"
    }
  },
  {
    "type": "Feature",
    "geometry": {
       "type": "Point",
       "coordinates":  [ -1.68205,6.19897 ]
    },
    "properties": {
    "Region":"Ashanti",
    "District":"Obuasi Municipal",
    "FacilityName":"Anyinam Clinic",
    "Type":"Clinic",
    "Town":"Obuasi-Anyinam",
    "Ownership":"Government"
    }
  },
  {
    "type": "Feature",
    "geometry": {
       "type": "Point",
       "coordinates":  [ -2.10037,6.95913 ]
    },
    "properties": {
    "Region":"Ashanti",
    "District":"Ahafo-Ano North",
    "FacilityName":"Anyinasuso Health Centre",
    "Type":"Health Centre",
    "Town":"Anyinasuso",
    "Ownership":"Government"
    }
  },
  {
    "type": "Feature",
    "geometry": {
       "type": "Point",
       "coordinates":  [ -2.10015,6.95871 ]
    },
    "properties": {
    "Region":"Ashanti",
    "District":"Ahafo-Ano North",
    "FacilityName":"Anyinasuso Maternity Home",
    "Type":"Maternity Home",
    "Town":"Anyinasuso",
    "Ownership":"Private"
    }
  },
  {
    "type": "Feature",
    "geometry": {
       "type": "Point",
       "coordinates":  [ -1.70874,7.01484 ]
    },
    "properties": {
    "Region":"Ashanti",
    "District":"Offinso North",
    "FacilityName":"Anyinasusu SDA Centre",
    "Type":"Clinic",
    "Town":"Anyinasusu",
    "Ownership":"CHAG"
    }
  },
  {
    "type": "Feature",
    "geometry": {
       "type": "Point",
       "coordinates":  [ -0.77045,7.42528 ]
    },
    "properties": {
    "Region":"Ashanti",
    "District":"Sekyere Afram Plains",
    "FacilityName":"Anyinofi Health Centre",
    "Type":"Health Centre",
    "Town":"Anyinofi",
    "Ownership":"Government"
    }
  },
  {
    "type": "Feature",
    "geometry": {
       "type": "Point",
       "coordinates":  [ -1.43465,6.95511 ]
    },
    "properties": {
    "Region":"Ashanti",
    "District":"Mampong Municipal",
    "FacilityName":"Apaa Maternity Home",
    "Type":"Maternity Home",
    "Town":"Apaa",
    "Ownership":"Private"
    }
  },
  {
    "type": "Feature",
    "geometry": {
       "type": "Point",
       "coordinates":  [ -1.49543,6.67085 ]
    },
    "properties": {
    "Region":"Ashanti",
    "District":"Ejisu-Juaben Municipal",
    "FacilityName":"Apromase Health Centre",
    "Type":"Health Centre",
    "Town":"Apromase",
    "Ownership":"Government"
    }
  },
  {
    "type": "Feature",
    "geometry": {
       "type": "Point",
       "coordinates":  [ -1.46598,7.11732 ]
    },
    "properties": {
    "Region":"Ashanti",
    "District":"Mampong Municipal",
    "FacilityName":"Asaam Health Clinic",
    "Type":"Health Centre",
    "Town":"Asaam",
    "Ownership":"Government"
    }
  },
  {
    "type": "Feature",
    "geometry": {
       "type": "Point",
       "coordinates":  [ -1.68233,6.19924 ]
    },
    "properties": {
    "Region":"Ashanti",
    "District":"Obuasi Municipal",
    "FacilityName":"Asempa   Maternity and Clinic",
    "Type":"Clinic",
    "Town":"Gausu",
    "Ownership":"Private"
    }
  },
  {
    "type": "Feature",
    "geometry": {
       "type": "Point",
       "coordinates":  [ -1.64978,6.62597 ]
    },
    "properties": {
    "Region":"Ashanti",
    "District":"Atwima-Kwanwoma",
    "FacilityName":"Ahenema kokoben Health Centre",
    "Type":"Health Centre",
    "Town":"Ahenema kokoben",
    "Ownership":"Government"
    }
  },
  {
    "type": "Feature",
    "geometry": {
       "type": "Point",
       "coordinates":  [ -1.68505,6.61154 ]
    },
    "properties": {
    "Region":"Ashanti",
    "District":"Atwima-Kwanwoma",
    "FacilityName":"Bebu Methodist Clinic",
    "Type":"Clinic",
    "Town":"Bebu",
    "Ownership":"CHAG"
    }
  },
  {
    "type": "Feature",
    "geometry": {
       "type": "Point",
       "coordinates":  [ -1.65857,6.61458 ]
    },
    "properties": {
    "Region":"Ashanti",
    "District":"Atwima-Kwanwoma",
    "FacilityName":"Eye Adom Maternity Home",
    "Type":"Maternity Home",
    "Town":"Brofoyeduru",
    "Ownership":"Private"
    }
  },
  {
    "type": "Feature",
    "geometry": {
       "type": "Point",
       "coordinates":  [ -1.75124,6.63751 ]
    },
    "properties": {
    "Region":"Ashanti",
    "District":"Atwima-Kwanwoma",
    "FacilityName":"Foase Health Centre",
    "Type":"Health Centre",
    "Town":"Foase",
    "Ownership":"Government"
    }
  },
  {
    "type": "Feature",
    "geometry": {
       "type": "Point",
       "coordinates":  [ -1.63524,6.62865 ]
    },
    "properties": {
    "Region":"Ashanti",
    "District":"Atwima-Kwanwoma",
    "FacilityName":"Kwanwoma Health Centre",
    "Type":"Health Centre",
    "Town":"Kwanwoma",
    "Ownership":"Government"
    }
  },
  {
    "type": "Feature",
    "geometry": {
       "type": "Point",
       "coordinates":  [ -1.76252,6.61142 ]
    },
    "properties": {
    "Region":"Ashanti",
    "District":"Atwima-Kwanwoma",
    "FacilityName":"Trabuom Health Centre",
    "Type":"Health Centre",
    "Town":"Trabuom",
    "Ownership":"Government"
    }
  },
  {
    "type": "Feature",
    "geometry": {
       "type": "Point",
       "coordinates":  [ -1.66859,6.57803 ]
    },
    "properties": {
    "Region":"Ashanti",
    "District":"Atwima-Kwanwoma",
    "FacilityName":"Trede Health Centre",
    "Type":"Health Centre",
    "Town":"Trede",
    "Ownership":"Government"
    }
  },
  {
    "type": "Feature",
    "geometry": {
       "type": "Point",
       "coordinates":  [ -1.578999399,6.5972124 ]
    },
    "properties": {
    "Region":"Ashanti",
    "District":"Atwima-Kwanwoma",
    "FacilityName":"Nweneso III Health Centre",
    "Type":"Health Centre",
    "Town":"Nweneso III",
    "Ownership":"Private"
    }
  },
  {
    "type": "Feature",
    "geometry": {
       "type": "Point",
       "coordinates":  [ -1.33434,6.42344 ]
    },
    "properties": {
    "Region":"Ashanti",
    "District":"Bosome Freho",
    "FacilityName":"Asiwa Health Centre",
    "Type":"Health Centre",
    "Town":"Asiwa",
    "Ownership":"Government"
    }
  },
  {
    "type": "Feature",
    "geometry": {
       "type": "Point",
       "coordinates":  [ -1.50786,6.28068 ]
    },
    "properties": {
    "Region":"Ashanti",
    "District":"Adansi North",
    "FacilityName":"Asokwa Health Centre",
    "Type":"Health Centre",
    "Town":"Asokwa",
    "Ownership":"Government"
    }
  },
  {
    "type": "Feature",
    "geometry": {
       "type": "Point",
       "coordinates":  [ -1.86502,6.53656 ]
    },
    "properties": {
    "Region":"Ashanti",
    "District":"Amansie West",
    "FacilityName":"Essuowin Health Centre",
    "Type":"Health Centre",
    "Town":"Assuowin",
    "Ownership":"Government"
    }
  },
  {
    "type": "Feature",
    "geometry": {
       "type": "Point",
       "coordinates":  [ -1.23529,7.31624 ]
    },
    "properties": {
    "Region":"Ashanti",
    "District":"Sekyere Central",
    "FacilityName":"Asubuasu Health Centre",
    "Type":"Health Centre",
    "Town":"Asubuasu",
    "Ownership":"Government"
    }
  },
  {
    "type": "Feature",
    "geometry": {
       "type": "Point",
       "coordinates":  [ -2,7 ]
    },
    "properties": {
    "Region":"Ashanti",
    "District":"Atwima-Nwabiagya",
    "FacilityName":"Asuofua Health Centre",
    "Type":"Health Centre",
    "Town":"Asuofia",
    "Ownership":"Government"
    }
  },
  {
    "type": "Feature",
    "geometry": {
       "type": "Point",
       "coordinates":  [ -1.36454,5.96664 ]
    },
    "properties": {
    "Region":"Ashanti",
    "District":"Adansi South",
    "FacilityName":"Ataasi Health Centre",
    "Type":"Health Centre",
    "Town":"Ataasi Nkwanta",
    "Ownership":"Government"
    }
  },
  {
    "type": "Feature",
    "geometry": {
       "type": "Point",
       "coordinates":  [ -1.30912,7.02372 ]
    },
    "properties": {
    "Region":"Ashanti",
    "District":"Sekyere Central",
    "FacilityName":"Atonsu Health Centre",
    "Type":"Health Centre",
    "Town":"Atonsu",
    "Ownership":"Government"
    }
  },
  {
    "type": "Feature",
    "geometry": {
       "type": "Point",
       "coordinates":  [ -1.34213,5.96235 ]
    },
    "properties": {
    "Region":"Ashanti",
    "District":"Adansi South",
    "FacilityName":"Atwereboana Clinic",
    "Type":"Clinic",
    "Town":"Atwereboana",
    "Ownership":"Government"
    }
  },
  {
    "type": "Feature",
    "geometry": {
       "type": "Point",
       "coordinates":  [ -2,7 ]
    },
    "properties": {
    "Region":"Ashanti",
    "District":"Atwima-Nwabiagya",
    "FacilityName":"Atwima Clinic",
    "Type":"Clinic",
    "Town":"Atwima",
    "Ownership":"Government"
    }
  },
  {
    "type": "Feature",
    "geometry": {
       "type": "Point",
       "coordinates":  [ -1.62953,6.19802 ]
    },
    "properties": {
    "Region":"Ashanti",
    "District":"Obuasi Municipal",
    "FacilityName":"Avril Clinic",
    "Type":"Clinic",
    "Town":"Akaporiso",
    "Ownership":"Private"
    }
  },
  {
    "type": "Feature",
    "geometry": {
       "type": "Point",
       "coordinates":  [ -1.32417,7.34065 ]
    },
    "properties": {
    "Region":"Ashanti",
    "District":"Ejura Sekyeredumasi",
    "FacilityName":"Babaso MCH",
    "Type":"Clinic",
    "Town":"Babaso",
    "Ownership":"Government"
    }
  },
  {
    "type": "Feature",
    "geometry": {
       "type": "Point",
       "coordinates":  [ -1.21615,6.29824 ]
    },
    "properties": {
    "Region":"Ashanti",
    "District":"Asante-Akim South",
    "FacilityName":"Banka Health Centre",
    "Type":"Health Centre",
    "Town":"Banka",
    "Ownership":"Government"
    }
  },
  {
    "type": "Feature",
    "geometry": {
       "type": "Point",
       "coordinates":  [ -1.28473,6.75822 ]
    },
    "properties": {
    "Region":"Ashanti",
    "District":"Sekyere Afram Plains",
    "FacilityName":"Banko Health Centre",
    "Type":"Health Centre",
    "Town":"Banko",
    "Ownership":"Government"
    }
  },
  {
    "type": "Feature",
    "geometry": {
       "type": "Point",
       "coordinates":  [ -1.19674,6.47584 ]
    },
    "properties": {
    "Region":"Ashanti",
    "District":"Asante-Akim South",
    "FacilityName":"Banso SDA Clinic",
    "Type":"Clinic",
    "Town":"Banso",
    "Ownership":"Government"
    }
  },
  {
    "type": "Feature",
    "geometry": {
       "type": "Point",
       "coordinates":  [ -2,7 ]
    },
    "properties": {
    "Region":"Ashanti",
    "District":"Atwima-Nwabiagya",
    "FacilityName":"Barekese Health Centre",
    "Type":"Health Centre",
    "Town":"Barekese",
    "Ownership":"Government"
    }
  },
  {
    "type": "Feature",
    "geometry": {
       "type": "Point",
       "coordinates":  [ -2.17473,6.54199 ]
    },
    "properties": {
    "Region":"Ashanti",
    "District":"Atwima-Mponua",
    "FacilityName":"Barniekrom maternity home",
    "Type":"Maternity Home",
    "Town":"Barniekrom",
    "Ownership":"Government"
    }
  },
  {
    "type": "Feature",
    "geometry": {
       "type": "Point",
       "coordinates":  [ -1.09566,6.86725 ]
    },
    "properties": {
    "Region":"Ashanti",
    "District":"Asante-Akim North Municipal",
    "FacilityName":"Bebome Health Centre",
    "Type":"Health Centre",
    "Town":"Bebome",
    "Ownership":"Government"
    }
  },
  {
    "type": "Feature",
    "geometry": {
       "type": "Point",
       "coordinates":  [ -1.68505,6.61154 ]
    },
    "properties": {
    "Region":"Ashanti",
    "District":"Atwima-Kwanwoma",
    "FacilityName":"Bebu Methodist Clinic",
    "Type":"Clinic",
    "Town":"Bebu",
    "Ownership":"CHAG"
    }
  },
  {
    "type": "Feature",
    "geometry": {
       "type": "Point",
       "coordinates":  [ -1.57857,6.45605 ]
    },
    "properties": {
    "Region":"Ashanti",
    "District":"Bekwai Municipal",
    "FacilityName":"Bekwai Government Hospital",
    "Type":"District Hospital",
    "Town":"Bekwai",
    "Ownership":"Government"
    }
  },
  {
    "type": "Feature",
    "geometry": {
       "type": "Point",
       "coordinates":  [ -1.46459,7.09054 ]
    },
    "properties": {
    "Region":"Ashanti",
    "District":"Mampong Municipal",
    "FacilityName":"Benim Health Centre",
    "Type":"Health Centre",
    "Town":"Benim",
    "Ownership":"Government"
    }
  },
  {
    "type": "Feature",
    "geometry": {
       "type": "Point",
       "coordinates":  [ -1.35503,6.98526 ]
    },
    "properties": {
    "Region":"Ashanti",
    "District":"Sekyere Central",
    "FacilityName":"Beposo Health Centre",
    "Type":"Centre",
    "Town":"Beposo",
    "Ownership":"Government"
    }
  },
  {
    "type": "Feature",
    "geometry": {
       "type": "Point",
       "coordinates":  [ -1.90327,6.64692 ]
    },
    "properties": {
    "Region":"Ashanti",
    "District":"Atwima-Mponua",
    "FacilityName":"Bethel Maternity Home",
    "Type":"Maternity Home",
    "Town":"Enyinamoso",
    "Ownership":"Private"
    }
  },
  {
    "type": "Feature",
    "geometry": {
       "type": "Point",
       "coordinates":  [ -2.20685,6.86638 ]
    },
    "properties": {
    "Region":"Ashanti",
    "District":"Ahafo-Ano North",
    "FacilityName":"Betiako Health Centre",
    "Type":"Health Centre",
    "Town":"Betiako",
    "Ownership":"Government"
    }
  },
  {
    "type": "Feature",
    "geometry": {
       "type": "Point",
       "coordinates":  [ -2.18134,6.39211 ]
    },
    "properties": {
    "Region":"Ashanti",
    "District":"Atwima-Mponua",
    "FacilityName":"Beyerebon No.5 Health Centre",
    "Type":"Health Centre",
    "Town":"Bayerebon",
    "Ownership":"Government"
    }
  },
  {
    "type": "Feature",
    "geometry": {
       "type": "Point",
       "coordinates":  [ -0.99197,7.22732 ]
    },
    "properties": {
    "Region":"Ashanti",
    "District":"Mampong Municipal",
    "FacilityName":"Birem Health Centre",
    "Type":"Health Centre",
    "Town":"Birem",
    "Ownership":"Government"
    }
  },
  {
    "type": "Feature",
    "geometry": {
       "type": "Point",
       "coordinates":  [ -1.61705,6.94073 ]
    },
    "properties": {
    "Region":"Ashanti",
    "District":"Afigya-Kwabre",
    "FacilityName":"Boamang Health Centre",
    "Type":"Health Centre",
    "Town":"Boamang",
    "Ownership":"Government"
    }
  },
  {
    "type": "Feature",
    "geometry": {
       "type": "Point",
       "coordinates":  [ -1.48741,7.03482 ]
    },
    "properties": {
    "Region":"Ashanti",
    "District":"Sekyere South",
    "FacilityName":"Boanim Health Centre",
    "Type":"Health Centre",
    "Town":"Boanim",
    "Ownership":"Government"
    }
  },
  {
    "type": "Feature",
    "geometry": {
       "type": "Point",
       "coordinates":  [ -1.31031,6.22249 ]
    },
    "properties": {
    "Region":"Ashanti",
    "District":"Adansi North",
    "FacilityName":"Bodwesango St Louis Health Centre",
    "Type":"Health Centre",
    "Town":"Bodwesango",
    "Ownership":"CHAG"
    }
  },
  {
    "type": "Feature",
    "geometry": {
       "type": "Point",
       "coordinates":  [ -1.29933,6.59635 ]
    },
    "properties": {
    "Region":"Ashanti",
    "District":"Ejisu-Juaben Municipal",
    "FacilityName":"Bomfa Health Centre",
    "Type":"Health Centre",
    "Town":"Bomfa",
    "Ownership":"Government"
    }
  },
  {
    "type": "Feature",
    "geometry": {
       "type": "Point",
       "coordinates":  [ -1.08393,6.66727 ]
    },
    "properties": {
    "Region":"Ashanti",
    "District":"Asante-Akim South",
    "FacilityName":"Bompata Health Centre",
    "Type":"Health Centre",
    "Town":"Bompata",
    "Ownership":"Government"
    }
  },
  {
    "type": "Feature",
    "geometry": {
       "type": "Point",
       "coordinates":  [ -1.67615,6.93485 ]
    },
    "properties": {
    "Region":"Ashanti",
    "District":"Offinso Municipal",
    "FacilityName":"Bonsua Health Centre",
    "Type":"Health Centre",
    "Town":"Bonsua",
    "Ownership":"Government"
    }
  },
  {
    "type": "Feature",
    "geometry": {
       "type": "Point",
       "coordinates":  [ -1.2846,6.4716 ]
    },
    "properties": {
    "Region":"Ashanti",
    "District":"Ejisu-Juaben Municipal",
    "FacilityName":"Bonwire Clinic",
    "Type":"Clinic",
    "Town":"Bonwire",
    "Ownership":"Private"
    }
  },
  {
    "type": "Feature",
    "geometry": {
       "type": "Point",
       "coordinates":  [ -1.63014,6.19444 ]
    },
    "properties": {
    "Region":"Ashanti",
    "District":"Obuasi Municipal",
    "FacilityName":"Brahabebome Clinic",
    "Type":"Clinic",
    "Town":"Brahabebome New Site",
    "Ownership":"Private"
    }
  },
  {
    "type": "Feature",
    "geometry": {
       "type": "Point",
       "coordinates":  [ -1.3844,6.1131 ]
    },
    "properties": {
    "Region":"Ashanti",
    "District":"Obuasi Municipal",
    "FacilityName":"Bryant  Mission Hospital",
    "Type":"Hospital",
    "Town":"Boete",
    "Ownership":"Private"
    }
  },
  {
    "type": "Feature",
    "geometry": {
       "type": "Point",
       "coordinates":  [ -1.65574,6.19886 ]
    },
    "properties": {
    "Region":"Ashanti",
    "District":"Obuasi Municipal",
    "FacilityName":"Cecilia Maternity  Home",
    "Type":"Maternity Home",
    "Town":"Kwabrafoso",
    "Ownership":"Private"
    }
  },
  {
    "type": "Feature",
    "geometry": {
       "type": "Point",
       "coordinates":  [ -1.67031,6.20591 ]
    },
    "properties": {
    "Region":"Ashanti",
    "District":"Obuasi Municipal",
    "FacilityName":"Central Market Clinic",
    "Type":"Clinic",
    "Town":"Estate Extension",
    "Ownership":"Private"
    }
  },
  {
    "type": "Feature",
    "geometry": {
       "type": "Point",
       "coordinates":  [ -1.52744,6.75486 ]
    },
    "properties": {
    "Region":"Ashanti",
    "District":"Kwabre",
    "FacilityName":"Christ Our Hope Maternity Home",
    "Type":"Maternity Home",
    "Town":"Ntonso",
    "Ownership":"Private"
    }
  },
  {
    "type": "Feature",
    "geometry": {
       "type": "Point",
       "coordinates":  [ -1.85217,6.51142 ]
    },
    "properties": {
    "Region":"Ashanti",
    "District":"Amansie West",
    "FacilityName":"Christ Our Saviour Clinic",
    "Type":"Clinic",
    "Town":"Manso Moseaso",
    "Ownership":"CHAG"
    }
  },
  {
    "type": "Feature",
    "geometry": {
       "type": "Point",
       "coordinates":  [ -1.42827,6.71394 ]
    },
    "properties": {
    "Region":"Ashanti",
    "District":"Ejisu-Juaben Municipal",
    "FacilityName":"Church of Christ Mission Clinic",
    "Type":"Clinic",
    "Town":"Adadientam",
    "Ownership":"CHAG"
    }
  },
  {
    "type": "Feature",
    "geometry": {
       "type": "Point",
       "coordinates":  [ -1.44979,6.66053 ]
    },
    "properties": {
    "Region":"Ashanti",
    "District":"Ejisu-Juaben Municipal",
    "FacilityName":"Church of God Clinic",
    "Type":"Clinic",
    "Town":"Essienimpong",
    "Ownership":"CHAG"
    }
  },
  {
    "type": "Feature",
    "geometry": {
       "type": "Point",
       "coordinates":  [ -1.84016,6.66848 ]
    },
    "properties": {
    "Region":"Ashanti",
    "District":"Atwima-Mponua",
    "FacilityName":"Community Health Centre",
    "Type":"Clinic",
    "Town":"Mpasatia",
    "Ownership":"CHAG"
    }
  },
  {
    "type": "Feature",
    "geometry": {
       "type": "Point",
       "coordinates":  [ -1.37595,7.00829 ]
    },
    "properties": {
    "Region":"Ashanti",
    "District":"Sekyere Central",
    "FacilityName":"Cross Medical Centre",
    "Type":"Clinic",
    "Town":"Nsuta",
    "Ownership":"Private"
    }
  },
  {
    "type": "Feature",
    "geometry": {
       "type": "Point",
       "coordinates":  [ -1.21314,6.62776 ]
    },
    "properties": {
    "Region":"Ashanti",
    "District":"Asante-Akim North Municipal",
    "FacilityName":"Daasebre Maternity Home",
    "Type":"Maternity Home",
    "Town":"Ahenebronuum",
    "Ownership":"Private"
    }
  },
  {
    "type": "Feature",
    "geometry": {
       "type": "Point",
       "coordinates":  [ -1.36776,6.88078 ]
    },
    "properties": {
    "Region":"Ashanti",
    "District":"Sekyere Afram Plains",
    "FacilityName":"Dadiase Health Centre",
    "Type":"Health Centre",
    "Town":"Dadiase",
    "Ownership":"Government"
    }
  },
  {
    "type": "Feature",
    "geometry": {
       "type": "Point",
       "coordinates":  [ -1.49322,6.72086 ]
    },
    "properties": {
    "Region":"Ashanti",
    "District":"Ejisu-Juaben Municipal",
    "FacilityName":"Dakopon Hospital",
    "Type":"Hospital",
    "Town":"Kwamo",
    "Ownership":"Private"
    }
  },
  {
    "type": "Feature",
    "geometry": {
       "type": "Point",
       "coordinates":  [ -1.97098,6.29398 ]
    },
    "properties": {
    "Region":"Ashanti",
    "District":"Amansie West",
    "FacilityName":"Datano Health Post",
    "Type":"Clinic",
    "Town":"Datano",
    "Ownership":"CHAG"
    }
  },
  {
    "type": "Feature",
    "geometry": {
       "type": "Point",
       "coordinates":  [ -1.44168,6.47674 ]
    },
    "properties": {
    "Region":"Ashanti",
    "District":"Bosome Freho",
    "FacilityName":"Detieso Community Clinic",
    "Type":"Clinic",
    "Town":"Detieso",
    "Ownership":"Government"
    }
  },
  {
    "type": "Feature",
    "geometry": {
       "type": "Point",
       "coordinates":  [ -1.55757,6.93864 ]
    },
    "properties": {
    "Region":"Ashanti",
    "District":"Sekyere South",
    "FacilityName":"Domeabra Health Centre",
    "Type":"Health Centre",
    "Town":"Domeabra",
    "Ownership":"Government"
    }
  },
  {
    "type": "Feature",
    "geometry": {
       "type": "Point",
       "coordinates":  [ -1.54468,6.32282 ]
    },
    "properties": {
    "Region":"Ashanti",
    "District":"Adansi North",
    "FacilityName":"Dompoase Benito Menni Health Centre",
    "Type":"Health Centre",
    "Town":"Dompoase",
    "Ownership":"CHAG"
    }
  },
  {
    "type": "Feature",
    "geometry": {
       "type": "Point",
       "coordinates":  [ -1.4951,6.4804 ]
    },
    "properties": {
    "Region":"Ashanti",
    "District":"Amansie West",
    "FacilityName":"Dora Maternity Clinic",
    "Type":"Maternity Home",
    "Town":"Pakyi  No 2",
    "Ownership":"Private"
    }
  },
  {
    "type": "Feature",
    "geometry": {
       "type": "Point",
       "coordinates":  [ -1.95297,7.39694 ]
    },
    "properties": {
    "Region":"Ashanti",
    "District":"Offinso North",
    "FacilityName":"Dorcas Memorial Clinic",
    "Type":"Clinic",
    "Town":"Akomadan",
    "Ownership":"CHAG"
    }
  },
  {
    "type": "Feature",
    "geometry": {
       "type": "Point",
       "coordinates":  [ -1.39522,6.46863 ]
    },
    "properties": {
    "Region":"Ashanti",
    "District":"Bosome Freho",
    "FacilityName":"Duasi Community Clinic",
    "Type":"Clinic",
    "Town":"Duasi",
    "Ownership":"Government"
    }
  },
  {
    "type": "Feature",
    "geometry": {
       "type": "Point",
       "coordinates":  [ -1.24407,6.53747 ]
    },
    "properties": {
    "Region":"Ashanti",
    "District":"Asante-Akim North Municipal",
    "FacilityName":"Dwease Health Centre",
    "Type":"Health Centre",
    "Town":"Dwease",
    "Ownership":"Government"
    }
  },
  {
    "type": "Feature",
    "geometry": {
       "type": "Point",
       "coordinates":  [ -1.19934,6.41223 ]
    },
    "properties": {
    "Region":"Ashanti",
    "District":"Asante-Akim South",
    "FacilityName":"Dwendwenase Health Centre",
    "Type":"Health Centre",
    "Town":"Dwendwenase",
    "Ownership":"Government"
    }
  },
  {
    "type": "Feature",
    "geometry": {
       "type": "Point",
       "coordinates":  [ -1.84306,6.65865 ]
    },
    "properties": {
    "Region":"Ashanti",
    "District":"Atwima-Mponua",
    "FacilityName":"Ebenezer Methodist Clinic",
    "Type":"Clinic",
    "Town":"Mpasatia",
    "Ownership":"CHAG"
    }
  },
  {
    "type": "Feature",
    "geometry": {
       "type": "Point",
       "coordinates":  [ -1.57367,6.19675 ]
    },
    "properties": {
    "Region":"Ashanti",
    "District":"Adansi South",
    "FacilityName":"Edwafo Health Centre",
    "Type":"Health Centre",
    "Town":"Edwafo",
    "Ownership":"Government"
    }
  },
  {
    "type": "Feature",
    "geometry": {
       "type": "Point",
       "coordinates":  [ -1.39373,6.84739 ]
    },
    "properties": {
    "Region":"Ashanti",
    "District":"Sekyere East",
    "FacilityName":"Effiduase District Hospital",
    "Type":"District Hospital",
    "Town":"Effiduase",
    "Ownership":"Government"
    }
  },
  {
    "type": "Feature",
    "geometry": {
       "type": "Point",
       "coordinates":  [ -1.39412,6.84821 ]
    },
    "properties": {
    "Region":"Ashanti",
    "District":"Sekyere East",
    "FacilityName":"Effiduase Trust Maternity Home",
    "Type":"Maternity Home",
    "Town":"Effiduase",
    "Ownership":"Private"
    }
  },
  {
    "type": "Feature",
    "geometry": {
       "type": "Point",
       "coordinates":  [ -1.47028,6.72103 ]
    },
    "properties": {
    "Region":"Ashanti",
    "District":"Ejisu-Juaben Municipal",
    "FacilityName":"Ejisu Health Centre",
    "Type":"Health Centre",
    "Town":"Ejisu",
    "Ownership":"Government"
    }
  },
  {
    "type": "Feature",
    "geometry": {
       "type": "Point",
       "coordinates":  [ -1.35197,7.38906 ]
    },
    "properties": {
    "Region":"Ashanti",
    "District":"Ejura Sekyeredumasi",
    "FacilityName":"Ejura District Hospital",
    "Type":"District Hospital",
    "Town":"Ejura",
    "Ownership":"Government"
    }
  },
  {
    "type": "Feature",
    "geometry": {
       "type": "Point",
       "coordinates":  [ -1.34358,7.36556 ]
    },
    "properties": {
    "Region":"Ashanti",
    "District":"Ejura Sekyeredumasi",
    "FacilityName":"Ejura MCH",
    "Type":"Clinic",
    "Town":"Ejura",
    "Ownership":"Government"
    }
  },
  {
    "type": "Feature",
    "geometry": {
       "type": "Point",
       "coordinates":  [ -1.52227,6.82287 ]
    },
    "properties": {
    "Region":"Ashanti",
    "District":"Afigya-Kwabre",
    "FacilityName":"Ejuratia Health Centre",
    "Type":"Health Centre",
    "Town":"Ejuratia",
    "Ownership":"Government"
    }
  },
  {
    "type": "Feature",
    "geometry": {
       "type": "Point",
       "coordinates":  [ -1.64475,6.19235 ]
    },
    "properties": {
    "Region":"Ashanti",
    "District":"Obuasi Municipal",
    "FacilityName":"Emmanuel  Maternity  Home",
    "Type":"Maternity Home",
    "Town":"Boete",
    "Ownership":"Private"
    }
  },
  {
    "type": "Feature",
    "geometry": {
       "type": "Point",
       "coordinates":  [ -1.35796,7.37894 ]
    },
    "properties": {
    "Region":"Ashanti",
    "District":"Ejura Sekyeredumasi",
    "FacilityName":"Enso Nyameye Maternity Home",
    "Type":"Maternity Home",
    "Town":"Kontokori Line",
    "Ownership":"Private"
    }
  },
  {
    "type": "Feature",
    "geometry": {
       "type": "Point",
       "coordinates":  [ -1.84784,6.97584 ]
    },
    "properties": {
    "Region":"Ashanti",
    "District":"Ahafo-Ano South",
    "FacilityName":"Essienkyem Health Centre",
    "Type":"Health Centre",
    "Town":"Essienkyem",
    "Ownership":"Government"
    }
  },
  {
    "type": "Feature",
    "geometry": {
       "type": "Point",
       "coordinates":  [ -2,7 ]
    },
    "properties": {
    "Region":"Ashanti",
    "District":"Atwima-Nwabiagya",
    "FacilityName":"Everest Hospital",
    "Type":"Hospital",
    "Town":"Achiase",
    "Ownership":"Private"
    }
  },
  {
    "type": "Feature",
    "geometry": {
       "type": "Point",
       "coordinates":  [ -1.65857,6.61458 ]
    },
    "properties": {
    "Region":"Ashanti",
    "District":"Atwima-Kwanwoma",
    "FacilityName":"Eye Adom Maternity Home",
    "Type":"Maternity Home",
    "Town":"Brofoyeduru",
    "Ownership":"Private"
    }
  },
  {
    "type": "Feature",
    "geometry": {
       "type": "Point",
       "coordinates":  [ -1.47675,6.81614 ]
    },
    "properties": {
    "Region":"Ashanti",
    "District":"Afigya-Kwabre",
    "FacilityName":"Family Care Hospital",
    "Type":"Hospital",
    "Town":"Mowre",
    "Ownership":"Private"
    }
  },
  {
    "type": "Feature",
    "geometry": {
       "type": "Point",
       "coordinates":  [ -1.63866,6.81047 ]
    },
    "properties": {
    "Region":"Ashanti",
    "District":"Kwabre",
    "FacilityName":"Fawade Nkanta Clinic",
    "Type":"Clinic",
    "Town":"Fawade",
    "Ownership":"Private"
    }
  },
  {
    "type": "Feature",
    "geometry": {
       "type": "Point",
       "coordinates":  [ -1.75124,6.63751 ]
    },
    "properties": {
    "Region":"Ashanti",
    "District":"Atwima-Kwanwoma",
    "FacilityName":"Foase Health Centre",
    "Type":"Health Centre",
    "Town":"Foase",
    "Ownership":"Government"
    }
  },
  {
    "type": "Feature",
    "geometry": {
       "type": "Point",
       "coordinates":  [ -1.51002,6.28022 ]
    },
    "properties": {
    "Region":"Ashanti",
    "District":"Adansi North",
    "FacilityName":"Fomena Health Centre",
    "Type":"Health Centre",
    "Town":"Fomena",
    "Ownership":"Government"
    }
  },
  {
    "type": "Feature",
    "geometry": {
       "type": "Point",
       "coordinates":  [ -1.44854,6.11048 ]
    },
    "properties": {
    "Region":"Ashanti",
    "District":"Adansi North",
    "FacilityName":"Fumso Health Centre",
    "Type":"Health Centre",
    "Town":"Fumso",
    "Ownership":"Government"
    }
  },
  {
    "type": "Feature",
    "geometry": {
       "type": "Point",
       "coordinates":  [ -1.63103,6.29675 ]
    },
    "properties": {
    "Region":"Ashanti",
    "District":"Adansi North",
    "FacilityName":"Fumso-Ketewa Health Centre",
    "Type":"Health Centre",
    "Town":"Fumso Ketewa",
    "Ownership":"Government"
    }
  },
  {
    "type": "Feature",
    "geometry": {
       "type": "Point",
       "coordinates":  [ -1.56109,6.78875 ]
    },
    "properties": {
    "Region":"Ashanti",
    "District":"Afigya-Kwabre",
    "FacilityName":"Gladys Maternity Home",
    "Type":"Maternity Home",
    "Town":"Kodie",
    "Ownership":"Private"
    }
  },
  {
    "type": "Feature",
    "geometry": {
       "type": "Point",
       "coordinates":  [ -1.49298,6.66903 ]
    },
    "properties": {
    "Region":"Ashanti",
    "District":"Ejisu-Juaben Municipal",
    "FacilityName":"Global Evangelical Mission Hospital",
    "Type":"Hospital",
    "Town":"Apromase",
    "Ownership":"CHAG"
    }
  },
  {
    "type": "Feature",
    "geometry": {
       "type": "Point",
       "coordinates":  [ -2,7 ]
    },
    "properties": {
    "Region":"Ashanti",
    "District":"Atwima-Nwabiagya",
    "FacilityName":"God is Able Maternity Home",
    "Type":"Maternity Home",
    "Town":"Sepase",
    "Ownership":"Private"
    }
  },
  {
    "type": "Feature",
    "geometry": {
       "type": "Point",
       "coordinates":  [ -1.46146,6.73257 ]
    },
    "properties": {
    "Region":"Ashanti",
    "District":"Ejisu-Juaben Municipal",
    "FacilityName":"Grace Maternity Home and Clinic",
    "Type":"Maternity Home",
    "Town":"Akyawkrom",
    "Ownership":"Private"
    }
  },
  {
    "type": "Feature",
    "geometry": {
       "type": "Point",
       "coordinates":  [ -1.47313,6.40145 ]
    },
    "properties": {
    "Region":"Ashanti",
    "District":"Bosome Freho",
    "FacilityName":"Gyasikrom Health Centre",
    "Type":"Clinic",
    "Town":"Gyasikrom",
    "Ownership":"Government"
    }
  },
  {
    "type": "Feature",
    "geometry": {
       "type": "Point",
       "coordinates":  [ -2.41673,6.47006 ]
    },
    "properties": {
    "Region":"Ashanti",
    "District":"Atwima-Mponua",
    "FacilityName":"Gyreso RCH",
    "Type":"RCH",
    "Town":"Gyeresu",
    "Ownership":"Government"
    }
  },
  {
    "type": "Feature",
    "geometry": {
       "type": "Point",
       "coordinates":  [ -1.45106,7.42915 ]
    },
    "properties": {
    "Region":"Ashanti",
    "District":"Ejura Sekyeredumasi",
    "FacilityName":"Homako Community Clinic",
    "Type":"Clinic",
    "Town":"Homako",
    "Ownership":"Government"
    }
  },
  {
    "type": "Feature",
    "geometry": {
       "type": "Point",
       "coordinates":  [ -1.52225,6.71479 ]
    },
    "properties": {
    "Region":"Ashanti",
    "District":"Ejisu-Juaben Municipal",
    "FacilityName":"Humble Maternity Home",
    "Type":"Maternity Home",
    "Town":"Kokobra",
    "Ownership":"Private"
    }
  },
  {
    "type": "Feature",
    "geometry": {
       "type": "Point",
       "coordinates":  [ -1.34007,6.61582 ]
    },
    "properties": {
    "Region":"Ashanti",
    "District":"Ejisu-Juaben Municipal",
    "FacilityName":"Huttel Health Centre",
    "Type":"Health Centre",
    "Town":"Boamadumase",
    "Ownership":"Private"
    }
  },
  {
    "type": "Feature",
    "geometry": {
       "type": "Point",
       "coordinates":  [ -1.46766,5.89432 ]
    },
    "properties": {
    "Region":"Ashanti",
    "District":"Adansi South",
    "FacilityName":"Hwidiem Community Clinic",
    "Type":"Clinic",
    "Town":"Hwidiem",
    "Ownership":"Government"
    }
  },
  {
    "type": "Feature",
    "geometry": {
       "type": "Point",
       "coordinates":  [ -1.68425,6.20564 ]
    },
    "properties": {
    "Region":"Ashanti",
    "District":"Obuasi Municipal",
    "FacilityName":"Ideal Homoepatic Clinic",
    "Type":"Clinic",
    "Town":"Obuasi - Stadium",
    "Ownership":"Private"
    }
  },
  {
    "type": "Feature",
    "geometry": {
       "type": "Point",
       "coordinates":  [ -1.13783,7.41542 ]
    },
    "properties": {
    "Region":"Ashanti",
    "District":"Sekyere Central",
    "FacilityName":"Isaaka Akura Health Centre",
    "Type":"Health Centre",
    "Town":"Isaaka Akura-Afram  Plains",
    "Ownership":"Private"
    }
  },
  {
    "type": "Feature",
    "geometry": {
       "type": "Point",
       "coordinates":  [ -1.64877,6.81462 ]
    },
    "properties": {
    "Region":"Ashanti",
    "District":"Afigya-Kwabre",
    "FacilityName":"Jalua  Maternity Home",
    "Type":"Maternity Home",
    "Town":"Nkukua Buoho",
    "Ownership":"Private"
    }
  },
  {
    "type": "Feature",
    "geometry": {
       "type": "Point",
       "coordinates":  [ -1.47255,6.97753 ]
    },
    "properties": {
    "Region":"Ashanti",
    "District":"Sekyere South",
    "FacilityName":"Jamasi Health Centre",
    "Type":"Health Centre",
    "Town":"Jamasi",
    "Ownership":"Government"
    }
  },
  {
    "type": "Feature",
    "geometry": {
       "type": "Point",
       "coordinates":  [ -1.20917,7.09501 ]
    },
    "properties": {
    "Region":"Ashanti",
    "District":"Sekyere Central",
    "FacilityName":"Jeduako Clinic",
    "Type":"Clinic",
    "Town":"Jeduako",
    "Ownership":"Government"
    }
  },
  {
    "type": "Feature",
    "geometry": {
       "type": "Point",
       "coordinates":  [ -1.66816,6.20313 ]
    },
    "properties": {
    "Region":"Ashanti",
    "District":"Obuasi Municipal",
    "FacilityName":"Jemina Maternity Home",
    "Type":"Maternity Home",
    "Town":"Obuasi Central",
    "Ownership":"Private"
    }
  },
  {
    "type": "Feature",
    "geometry": {
       "type": "Point",
       "coordinates":  [ -1.51092,6.73865 ]
    },
    "properties": {
    "Region":"Ashanti",
    "District":"Ejisu-Juaben Municipal",
    "FacilityName":"Jesus Is Lord Maternity Home",
    "Type":"Maternity Home",
    "Town":"Tikrom",
    "Ownership":"Private"
    }
  },
  {
    "type": "Feature",
    "geometry": {
       "type": "Point",
       "coordinates":  [ -1.64543,6.79962 ]
    },
    "properties": {
    "Region":"Ashanti",
    "District":"Kwabre",
    "FacilityName":"Joy Maternity Home",
    "Type":"Maternity Home",
    "Town":"Mamponteng",
    "Ownership":"Private"
    }
  },
  {
    "type": "Feature",
    "geometry": {
       "type": "Point",
       "coordinates":  [ -1.41392,6.81602 ]
    },
    "properties": {
    "Region":"Ashanti",
    "District":"Ejisu-Juaben Municipal",
    "FacilityName":"Juaben Government Hospital",
    "Type":"District Hospital",
    "Town":"Juaben",
    "Ownership":"Government"
    }
  },
  {
    "type": "Feature",
    "geometry": {
       "type": "Point",
       "coordinates":  [ -1.12734,6.72336 ]
    },
    "properties": {
    "Region":"Ashanti",
    "District":"Asante-Akim North Municipal",
    "FacilityName":"Juansa Health Centre",
    "Type":"Health Centre",
    "Town":"Juansa",
    "Ownership":"Government"
    }
  },
  {
    "type": "Feature",
    "geometry": {
       "type": "Point",
       "coordinates":  [ -1.12113,6.59223 ]
    },
    "properties": {
    "Region":"Ashanti",
    "District":"Asante-Akim South",
    "FacilityName":"Juaso District Hospital",
    "Type":"District Hospital",
    "Town":"Juaso",
    "Ownership":"Government"
    }
  },
  {
    "type": "Feature",
    "geometry": {
       "type": "Point",
       "coordinates":  [ -2.01764,6.37344 ]
    },
    "properties": {
    "Region":"Ashanti",
    "District":"Amansie West",
    "FacilityName":"Keniago CHPS",
    "Type":"CHPS",
    "Town":"Keniago",
    "Ownership":"Government"
    }
  },
  {
    "type": "Feature",
    "geometry": {
       "type": "Point",
       "coordinates":  [ -1.56655,6.78507 ]
    },
    "properties": {
    "Region":"Ashanti",
    "District":"Kwabre",
    "FacilityName":"Kenyasi Health Centre",
    "Type":"Health Centre",
    "Town":"Kenyasi",
    "Ownership":"Government"
    }
  },
  {
    "type": "Feature",
    "geometry": {
       "type": "Point",
       "coordinates":  [ -1.68043,6.19624 ]
    },
    "properties": {
    "Region":"Ashanti",
    "District":"Obuasi Municipal",
    "FacilityName":"KofiKrom Clinic",
    "Type":"Clinic",
    "Town":"Kofi Krom",
    "Ownership":"Private"
    }
  },
  {
    "type": "Feature",
    "geometry": {
       "type": "Point",
       "coordinates":  [ -1.48363,7.14113 ]
    },
    "properties": {
    "Region":"Ashanti",
    "District":"Mampong Municipal",
    "FacilityName":"Kofiase Health Centre",
    "Type":"Health Centre",
    "Town":"Kofiase",
    "Ownership":"Government"
    }
  },
  {
    "type": "Feature",
    "geometry": {
       "type": "Point",
       "coordinates":  [ -1.52254,6.49903 ]
    },
    "properties": {
    "Region":"Ashanti",
    "District":"Bekwai Municipal",
    "FacilityName":"Kokofu General Hospital",
    "Type":"Hospital",
    "Town":"Kokofu",
    "Ownership":"Government"
    }
  },
  {
    "type": "Feature",
    "geometry": {
       "type": "Point",
       "coordinates":  [ -1.51231,6.86776 ]
    },
    "properties": {
    "Region":"Ashanti",
    "District":"Sekyere South",
    "FacilityName":"Kona Health Centre",
    "Type":"Health Centre",
    "Town":"Kona",
    "Ownership":"Government"
    }
  },
  {
    "type": "Feature",
    "geometry": {
       "type": "Point",
       "coordinates":  [ -1.21792,6.62436 ]
    },
    "properties": {
    "Region":"Ashanti",
    "District":"Asante-Akim North Municipal",
    "FacilityName":"Konongo-Odumasi Government Hospital",
    "Type":"District Hospital",
    "Town":"Konongo",
    "Ownership":"Government"
    }
  },
  {
    "type": "Feature",
    "geometry": {
       "type": "Point",
       "coordinates":  [ -1.42352,7.07457 ]
    },
    "properties": {
    "Region":"Ashanti",
    "District":"Mampong Municipal",
    "FacilityName":"Krobo Health Centre",
    "Type":"Health Centre",
    "Town":"Krobo",
    "Ownership":"Government"
    }
  },
  {
    "type": "Feature",
    "geometry": {
       "type": "Point",
       "coordinates":  [ -1.26803,6.90708 ]
    },
    "properties": {
    "Region":"Ashanti",
    "District":"Sekyere Afram Plains",
    "FacilityName":"Kumawu Health Centre",
    "Type":"Health Centre",
    "Town":"Kumawu",
    "Ownership":"Government"
    }
  },
  {
    "type": "Feature",
    "geometry": {
       "type": "Point",
       "coordinates":  [ -1.06901,6.46154 ]
    },
    "properties": {
    "Region":"Ashanti",
    "District":"Asante-Akim South",
    "FacilityName":"Komeso Health Centre",
    "Type":"Health Centre",
    "Town":"Kumeso",
    "Ownership":"Government"
    }
  },
  {
    "type": "Feature",
    "geometry": {
       "type": "Point",
       "coordinates":  [ -1.62457,6.89664 ]
    },
    "properties": {
    "Region":"Ashanti",
    "District":"Afigya-Kwabre",
    "FacilityName":"Kwamang Health Centre",
    "Type":"Health Centre",
    "Town":"Kwamang",
    "Ownership":"Government"
    }
  },
  {
    "type": "Feature",
    "geometry": {
       "type": "Point",
       "coordinates":  [ -1.26961,6.98188 ]
    },
    "properties": {
    "Region":"Ashanti",
    "District":"Sekyere Central",
    "FacilityName":"Kwamang Health Centre",
    "Type":"Health Centre",
    "Town":"Kwamang",
    "Ownership":"Government"
    }
  },
  {
    "type": "Feature",
    "geometry": {
       "type": "Point",
       "coordinates":  [ -1.63524,6.62865 ]
    },
    "properties": {
    "Region":"Ashanti",
    "District":"Atwima-Kwanwoma",
    "FacilityName":"Kwanwoma Health Centre",
    "Type":"Health Centre",
    "Town":"Kwanwoma",
    "Ownership":"Government"
    }
  },
  {
    "type": "Feature",
    "geometry": {
       "type": "Point",
       "coordinates":  [ -1.44722,6.62771 ]
    },
    "properties": {
    "Region":"Ashanti",
    "District":"Ejisu-Juaben Municipal",
    "FacilityName":"Kwaso Health Centre",
    "Type":"Health Centre",
    "Town":"Kwaso",
    "Ownership":"Government"
    }
  },
  {
    "type": "Feature",
    "geometry": {
       "type": "Point",
       "coordinates":  [ -1.63944,7.14538 ]
    },
    "properties": {
    "Region":"Ashanti",
    "District":"Afigya-Kwabre",
    "FacilityName":"Kyekyewere Health Centre",
    "Type":"Health Centre",
    "Town":"Kyekyewere",
    "Ownership":"Government"
    }
  },
  {
    "type": "Feature",
    "geometry": {
       "type": "Point",
       "coordinates":  [ -1.20373,6.62067 ]
    },
    "properties": {
    "Region":"Ashanti",
    "District":"Asante-Akim North Municipal",
    "FacilityName":"Life Land Clinic",
    "Type":"Clinic",
    "Town":"Abosomtweagya",
    "Ownership":"Private"
    }
  },
  {
    "type": "Feature",
    "geometry": {
       "type": "Point",
       "coordinates":  [ -2,7 ]
    },
    "properties": {
    "Region":"Ashanti",
    "District":"Atwima-Nwabiagya",
    "FacilityName":"Maakro Clinic",
    "Type":"Clinic",
    "Town":"Maakro",
    "Ownership":"Private"
    }
  },
  {
    "type": "Feature",
    "geometry": {
       "type": "Point",
       "coordinates":  [ -2.21651,6.99615 ]
    },
    "properties": {
    "Region":"Ashanti",
    "District":"Ahafo-Ano North",
    "FacilityName":"Matang Clinic",
    "Type":"Clinic",
    "Town":"Matang",
    "Ownership":"Private"
    }
  },
  {
    "type": "Feature",
    "geometry": {
       "type": "Point",
       "coordinates":  [ -1.45015,6.72093 ]
    },
    "properties": {
    "Region":"Ashanti",
    "District":"Ejisu-Juaben Municipal",
    "FacilityName":"Madoma Maternity Clinic",
    "Type":"Clinic",
    "Town":"Besease",
    "Ownership":"CHAG"
    }
  },
  {
    "type": "Feature",
    "geometry": {
       "type": "Point",
       "coordinates":  [ -1.50509,6.71524 ]
    },
    "properties": {
    "Region":"Ashanti",
    "District":"Ejisu-Juaben Municipal",
    "FacilityName":"Mama Tina Maternity Home",
    "Type":"Maternity Home",
    "Town":"Kwamo",
    "Ownership":"Private"
    }
  },
  {
    "type": "Feature",
    "geometry": {
       "type": "Point",
       "coordinates":  [ -1.40219,7.04563 ]
    },
    "properties": {
    "Region":"Ashanti",
    "District":"Mampong Municipal",
    "FacilityName":"Mampong District Hospital",
    "Type":"District Hospital",
    "Town":"Mampong",
    "Ownership":"Government"
    }
  },
  {
    "type": "Feature",
    "geometry": {
       "type": "Point",
       "coordinates":  [ -1.40195,7.04621 ]
    },
    "properties": {
    "Region":"Ashanti",
    "District":"Mampong Municipal",
    "FacilityName":"Mampong Quality Hospital",
    "Type":"Hospital",
    "Town":"Mampong",
    "Ownership":"Private"
    }
  },
  {
    "type": "Feature",
    "geometry": {
       "type": "Point",
       "coordinates":  [ -1.47695,6.83295 ]
    },
    "properties": {
    "Region":"Ashanti",
    "District":"Kwabre",
    "FacilityName":"Mamponteng Health Centre",
    "Type":"Health Centre",
    "Town":"Mamponteng",
    "Ownership":"Government"
    }
  },
  {
    "type": "Feature",
    "geometry": {
       "type": "Point",
       "coordinates":  [ -2.23044,6.94531 ]
    },
    "properties": {
    "Region":"Ashanti",
    "District":"Ahafo-Ano North",
    "FacilityName":"Manfo Health Centre",
    "Type":"Health Centre",
    "Town":"Manfo",
    "Ownership":"Government"
    }
  },
  {
    "type": "Feature",
    "geometry": {
       "type": "Point",
       "coordinates":  [ -1.86278,6.82076 ]
    },
    "properties": {
    "Region":"Ashanti",
    "District":"Ahafo-Ano South",
    "FacilityName":"Mankranso Hospital",
    "Type":"Hospital",
    "Town":"Mankranso",
    "Ownership":"Government"
    }
  },
  {
    "type": "Feature",
    "geometry": {
       "type": "Point",
       "coordinates":  [ -1.97764,6.44627 ]
    },
    "properties": {
    "Region":"Ashanti",
    "District":"Amansie West",
    "FacilityName":"Manso Abore Health Centre",
    "Type":"Health Centre",
    "Town":"Manso Abore",
    "Ownership":"Government"
    }
  },
  {
    "type": "Feature",
    "geometry": {
       "type": "Point",
       "coordinates":  [ -1.92957,6.40256 ]
    },
    "properties": {
    "Region":"Ashanti",
    "District":"Amansie West",
    "FacilityName":"Manso Edubia Health Centre",
    "Type":"Health Centre",
    "Town":"Manso-Adubia",
    "Ownership":"Government"
    }
  },
  {
    "type": "Feature",
    "geometry": {
       "type": "Point",
       "coordinates":  [ -1.87916,6.47682 ]
    },
    "properties": {
    "Region":"Ashanti",
    "District":"Amansie West",
    "FacilityName":"Manso Nkwanta Maternity Home",
    "Type":"Maternity Home",
    "Town":"Manso Nkwanta",
    "Ownership":"Private"
    }
  },
  {
    "type": "Feature",
    "geometry": {
       "type": "Point",
       "coordinates":  [ -1.99483,6.24929 ]
    },
    "properties": {
    "Region":"Ashanti",
    "District":"Amansie West",
    "FacilityName":"Manso Tontokrom Health Centre",
    "Type":"Health Centre",
    "Town":"Tontokrom",
    "Ownership":"Government"
    }
  },
  {
    "type": "Feature",
    "geometry": {
       "type": "Point",
       "coordinates":  [ -1.58955,6.04547 ]
    },
    "properties": {
    "Region":"Ashanti",
    "District":"Adansi South",
    "FacilityName":"Mansonso Health Centre",
    "Type":"Health Centre",
    "Town":"Mansonso",
    "Ownership":"Government"
    }
  },
  {
    "type": "Feature",
    "geometry": {
       "type": "Point",
       "coordinates":  [ -1.67799,6.35241 ]
    },
    "properties": {
    "Region":"Ashanti",
    "District":"Amansie Central",
    "FacilityName":"Marben Maternity",
    "Type":"Maternity Home",
    "Town":"Jacobu",
    "Ownership":"Private"
    }
  },
  {
    "type": "Feature",
    "geometry": {
       "type": "Point",
       "coordinates":  [ -1.56091,6.79089 ]
    },
    "properties": {
    "Region":"Ashanti",
    "District":"Kwabre",
    "FacilityName":"Meduma Clinic",
    "Type":"Clinic",
    "Town":"Medoma",
    "Ownership":"Private"
    }
  },
  {
    "type": "Feature",
    "geometry": {
       "type": "Point",
       "coordinates":  [ -1.52589,6.72122 ]
    },
    "properties": {
    "Region":"Ashanti",
    "District":"Ejisu-Juaben Municipal",
    "FacilityName":"Memorial Maternity Home",
    "Type":"Maternity Home",
    "Town":"Okyerekrom",
    "Ownership":"Private"
    }
  },
  {
    "type": "Feature",
    "geometry": {
       "type": "Point",
       "coordinates":  [ -1.54934,6.84819 ]
    },
    "properties": {
    "Region":"Ashanti",
    "District":"Afigya-Kwabre",
    "FacilityName":"Methodist Faith Healing Hospital",
    "Type":"District Hospital",
    "Town":"Ankaase",
    "Ownership":"CHAG"
    }
  },
  {
    "type": "Feature",
    "geometry": {
       "type": "Point",
       "coordinates":  [ -1.82139,6.22126 ]
    },
    "properties": {
    "Region":"Ashanti",
    "District":"Amansie Central",
    "FacilityName":"Mile 14 Community Clinic",
    "Type":"Clinic",
    "Town":"Mile 14",
    "Ownership":"Government"
    }
  },
  {
    "type": "Feature",
    "geometry": {
       "type": "Point",
       "coordinates":  [ -1.10681,6.65518 ]
    },
    "properties": {
    "Region":"Ashanti",
    "District":"Asante-Akim South",
    "FacilityName":"Morso Clinic",
    "Type":"Clinic",
    "Town":"Morso",
    "Ownership":"Government"
    }
  },
  {
    "type": "Feature",
    "geometry": {
       "type": "Point",
       "coordinates":  [ -1.89046,6.55942 ]
    },
    "properties": {
    "Region":"Ashanti",
    "District":"Amansie West",
    "FacilityName":"Mother of God Clinic",
    "Type":"Clinic",
    "Town":"Esaase",
    "Ownership":"CHAG"
    }
  },
  {
    "type": "Feature",
    "geometry": {
       "type": "Point",
       "coordinates":  [ -2.13864,6.80274 ]
    },
    "properties": {
    "Region":"Ashanti",
    "District":"Ahafo-Ano South",
    "FacilityName":"Mpasaso Health Centre",
    "Type":"Health Centre",
    "Town":"Mpasaso",
    "Ownership":"Government"
    }
  },
  {
    "type": "Feature",
    "geometry": {
       "type": "Point",
       "coordinates":  [ -1.93215,6.54088 ]
    },
    "properties": {
    "Region":"Ashanti",
    "District":"Amansie West",
    "FacilityName":"Mpatuom RCH",
    "Type":"RCH",
    "Town":"Mpatuom",
    "Ownership":"Government"
    }
  },
  {
    "type": "Feature",
    "geometry": {
       "type": "Point",
       "coordinates":  [ -1.56165,6.84775 ]
    },
    "properties": {
    "Region":"Ashanti",
    "District":"Afigya-Kwabre",
    "FacilityName":"Mpobi RCH",
    "Type":"RCH",
    "Town":"Mpobi",
    "Ownership":"Government"
    }
  },
  {
    "type": "Feature",
    "geometry": {
       "type": "Point",
       "coordinates":  [ -1.20566,6.24703 ]
    },
    "properties": {
    "Region":"Ashanti",
    "District":"Asante-Akim South",
    "FacilityName":"Muranaim Health Centre",
    "Type":"Health Centre",
    "Town":"Muronam",
    "Ownership":"Government"
    }
  },
  {
    "type": "Feature",
    "geometry": {
       "type": "Point",
       "coordinates":  [ -1.40213,7.06598 ]
    },
    "properties": {
    "Region":"Ashanti",
    "District":"Mampong Municipal",
    "FacilityName":"Nadaworoma Clinic",
    "Type":"Clinic",
    "Town":"Mampong New Town",
    "Ownership":"Private"
    }
  },
  {
    "type": "Feature",
    "geometry": {
       "type": "Point",
       "coordinates":  [ -2,7 ]
    },
    "properties": {
    "Region":"Ashanti",
    "District":"Atwima-Nwabiagya",
    "FacilityName":"Nana Frema Maternity Home",
    "Type":"Maternity Home",
    "Town":"Adankwame",
    "Ownership":"Private"
    }
  },
  {
    "type": "Feature",
    "geometry": {
       "type": "Point",
       "coordinates":  [ -1.30804,6.31788 ]
    },
    "properties": {
    "Region":"Ashanti",
    "District":"Bekwai Municipal",
    "FacilityName":"Nancy Powel's Clinic",
    "Type":"Clinic",
    "Town":"Tebeso #2",
    "Ownership":"CHAG"
    }
  },
  {
    "type": "Feature",
    "geometry": {
       "type": "Point",
       "coordinates":  [ -1.67117,6.21889 ]
    },
    "properties": {
    "Region":"Ashanti",
    "District":"Obuasi Municipal",
    "FacilityName":"Neighbourhood    Clinic",
    "Type":"Clinic",
    "Town":"Abompe    New  Site",
    "Ownership":"Private"
    }
  },
  {
    "type": "Feature",
    "geometry": {
       "type": "Point",
       "coordinates":  [ -1.52338,6.29641 ]
    },
    "properties": {
    "Region":"Ashanti",
    "District":"Adansi North",
    "FacilityName":"New Ayaasi Adom Maternity Home",
    "Type":"Health Centre",
    "Town":"New Ayaasi",
    "Ownership":"Private"
    }
  },
  {
    "type": "Feature",
    "geometry": {
       "type": "Point",
       "coordinates":  [ -1.39281,6.05456 ]
    },
    "properties": {
    "Region":"Ashanti",
    "District":"Adansi South",
    "FacilityName":"New Edubiase Hospital",
    "Type":"District Hospital",
    "Town":"New Edubiase",
    "Ownership":"Government"
    }
  },
  {
    "type": "Feature",
    "geometry": {
       "type": "Point",
       "coordinates":  [ -1.43677,6.47284 ]
    },
    "properties": {
    "Region":"Ashanti",
    "District":"Bekwai Municipal",
    "FacilityName":"New Life Clinic",
    "Type":"Clinic",
    "Town":"Apau",
    "Ownership":"CHAG"
    }
  },
  {
    "type": "Feature",
    "geometry": {
       "type": "Point",
       "coordinates":  [ -2.15827,6.37002 ]
    },
    "properties": {
    "Region":"Ashanti",
    "District":"Amansie West",
    "FacilityName":"Nipankyeremia CHPS",
    "Type":"CHPS",
    "Town":"Nipankyeremia",
    "Ownership":"Government"
    }
  },
  {
    "type": "Feature",
    "geometry": {
       "type": "Point",
       "coordinates":  [ -2,7 ]
    },
    "properties": {
    "Region":"Ashanti",
    "District":"Atwima-Nwabiagya",
    "FacilityName":"Nkawie/Toase Hospital",
    "Type":"Hospital",
    "Town":"Nkawie",
    "Ownership":"Government"
    }
  },
  {
    "type": "Feature",
    "geometry": {
       "type": "Point",
       "coordinates":  [ -1.90289,7.31957 ]
    },
    "properties": {
    "Region":"Ashanti",
    "District":"Offinso North",
    "FacilityName":"Nkenkasu District Hospital",
    "Type":"District Hospital",
    "Town":"Nkenkasu",
    "Ownership":"Government"
    }
  },
  {
    "type": "Feature",
    "geometry": {
       "type": "Point",
       "coordinates":  [ -1.34725,7.51378 ]
    },
    "properties": {
    "Region":"Ashanti",
    "District":"Ejura Sekyeredumasi",
    "FacilityName":"Nkwanta Community Clinic",
    "Type":"Clinic",
    "Town":"Ejura Nkwanta",
    "Ownership":"Government"
    }
  },
  {
    "type": "Feature",
    "geometry": {
       "type": "Point",
       "coordinates":  [ -1.092061,6.59956 ]
    },
    "properties": {
    "Region":"Ashanti",
    "District":"Asante-Akim South",
    "FacilityName":"Nnadieso Health Centre",
    "Type":"Health Centre",
    "Town":"Nnadieso",
    "Ownership":"Government"
    }
  },
  {
    "type": "Feature",
    "geometry": {
       "type": "Point",
       "coordinates":  [ -1.23985,6.62289 ]
    },
    "properties": {
    "Region":"Ashanti",
    "District":"Ejisu-Juaben Municipal",
    "FacilityName":"Nobewam SDA Clinic",
    "Type":"Clinic",
    "Town":"Nobewam",
    "Ownership":"CHAG"
    }
  },
  {
    "type": "Feature",
    "geometry": {
       "type": "Point",
       "coordinates":  [ -1.38146,7.00861 ]
    },
    "properties": {
    "Region":"Ashanti",
    "District":"Sekyere Central",
    "FacilityName":"Nsutaman Health Centre",
    "Type":"Health Centre",
    "Town":"Nsuta",
    "Ownership":"Government"
    }
  },
  {
    "type": "Feature",
    "geometry": {
       "type": "Point",
       "coordinates":  [ -2.04245,6.53571 ]
    },
    "properties": {
    "Region":"Ashanti",
    "District":"Atwima-Mponua",
    "FacilityName":"Ntobroso Health Centre",
    "Type":"Health Centre",
    "Town":"Ntobroso",
    "Ownership":"Government"
    }
  },
  {
    "type": "Feature",
    "geometry": {
       "type": "Point",
       "coordinates":  [ -1.85459,6.07568 ]
    },
    "properties": {
    "Region":"Ashanti",
    "District":"Amansie Central",
    "FacilityName":"Numereso Health Centre",
    "Type":"Health Centre",
    "Town":"Numereso",
    "Ownership":"Government"
    }
  },
  {
    "type": "Feature",
    "geometry": {
       "type": "Point",
       "coordinates":  [ -1.08871,6.79529 ]
    },
    "properties": {
    "Region":"Ashanti",
    "District":"Asante-Akim North Municipal",
    "FacilityName":"Nutrition Rehabilitation Centre",
    "Type":"Clinic",
    "Town":"Konongo",
    "Ownership":"Government"
    }
  },
  {
    "type": "Feature",
    "geometry": {
       "type": "Point",
       "coordinates":  [ -2,7 ]
    },
    "properties": {
    "Region":"Ashanti",
    "District":"Atwima-Nwabiagya",
    "FacilityName":"Nyama Maternity Home",
    "Type":"Maternity Home",
    "Town":"Achiase",
    "Ownership":"Private"
    }
  },
  {
    "type": "Feature",
    "geometry": {
       "type": "Point",
       "coordinates":  [ -1.93229,6.54096 ]
    },
    "properties": {
    "Region":"Ashanti",
    "District":"Amansie West",
    "FacilityName":"Nyame Akwan Maternity",
    "Type":"Maternity Home",
    "Town":"Mpatoum",
    "Ownership":"Private"
    }
  },
  {
    "type": "Feature",
    "geometry": {
       "type": "Point",
       "coordinates":  [ -2.10999,6.60115 ]
    },
    "properties": {
    "Region":"Ashanti",
    "District":"Atwima-Mponua",
    "FacilityName":"Nyinahin Government Hospital",
    "Type":"District Hospital",
    "Town":"Nyinahin",
    "Ownership":"Government"
    }
  },
  {
    "type": "Feature",
    "geometry": {
       "type": "Point",
       "coordinates":  [ -1.11586,6.51484 ]
    },
    "properties": {
    "Region":"Ashanti",
    "District":"Asante-Akim South",
    "FacilityName":"Obogu Health Centre",
    "Type":"Health Centre",
    "Town":"Obogu",
    "Ownership":"Government"
    }
  },
  {
    "type": "Feature",
    "geometry": {
       "type": "Point",
       "coordinates":  [ -1.35225,5.95324 ]
    },
    "properties": {
    "Region":"Ashanti",
    "District":"Adansi South",
    "FacilityName":"Obonsu Clinic",
    "Type":"Clinic",
    "Town":"Obonsu",
    "Ownership":"Government"
    }
  },
  {
    "type": "Feature",
    "geometry": {
       "type": "Point",
       "coordinates":  [ -1.4105,6.1213 ]
    },
    "properties": {
    "Region":"Ashanti",
    "District":"Obuasi Municipal",
    "FacilityName":"Obuasi Government Hospital",
    "Type":"Hospital",
    "Town":"Obuasi",
    "Ownership":"Government"
    }
  },
  {
    "type": "Feature",
    "geometry": {
       "type": "Point",
       "coordinates":  [ -1.96832,6.27381 ]
    },
    "properties": {
    "Region":"Ashanti",
    "District":"Amansie West",
    "FacilityName":"Odaho RCH",
    "Type":"RCH",
    "Town":"Odaho",
    "Ownership":"Government"
    }
  },
  {
    "type": "Feature",
    "geometry": {
       "type": "Point",
       "coordinates":  [ -1.67504,6.93782 ]
    },
    "properties": {
    "Region":"Ashanti",
    "District":"Offinso Municipal",
    "FacilityName":"Offinso Health Centre",
    "Type":"Health Centre",
    "Town":"Offinso",
    "Ownership":"Government"
    }
  },
  {
    "type": "Feature",
    "geometry": {
       "type": "Point",
       "coordinates":  [ -1.26746,6.37813 ]
    },
    "properties": {
    "Region":"Ashanti",
    "District":"Asante-Akim South",
    "FacilityName":"Ofoase Health Centre",
    "Type":"Health Centre",
    "Town":"Ofoase",
    "Ownership":"Government"
    }
  },
  {
    "type": "Feature",
    "geometry": {
       "type": "Point",
       "coordinates":  [ -1.30866,6.82612 ]
    },
    "properties": {
    "Region":"Ashanti",
    "District":"Sekyere East",
    "FacilityName":"Okaikrom Health Centre",
    "Type":"Health Centre",
    "Town":"Okaikrom",
    "Ownership":"Government"
    }
  },
  {
    "type": "Feature",
    "geometry": {
       "type": "Point",
       "coordinates":  [ -1.00318,7.34796 ]
    },
    "properties": {
    "Region":"Ashanti",
    "District":"Sekyere Central",
    "FacilityName":"Catholic Clinic, Oku",
    "Type":"Clinic",
    "Town":"Oku",
    "Ownership":"CHAG"
    }
  },
  {
    "type": "Feature",
    "geometry": {
       "type": "Point",
       "coordinates":  [ -1.63906,6.77474 ]
    },
    "properties": {
    "Region":"Ashanti",
    "District":"Afigya-Kwabre",
    "FacilityName":"Owusua Maternity Home",
    "Type":"Maternity Home",
    "Town":"Bronkong",
    "Ownership":"Private"
    }
  },
  {
    "type": "Feature",
    "geometry": {
       "type": "Point",
       "coordinates":  [ -1.38976,6.86521 ]
    },
    "properties": {
    "Region":"Ashanti",
    "District":"Sekyere Afram Plains",
    "FacilityName":"Oyoko Our Lady Maternity Home",
    "Type":"Maternity Home",
    "Town":"Oyoko",
    "Ownership":"Private"
    }
  },
  {
    "type": "Feature",
    "geometry": {
       "type": "Point",
       "coordinates":  [ -1.47262,6.72105 ]
    },
    "properties": {
    "Region":"Ashanti",
    "District":"Ejisu-Juaben Municipal",
    "FacilityName":"Paradyse Clinic",
    "Type":"Clinic",
    "Town":"Ejisu",
    "Ownership":"Private"
    }
  },
  {
    "type": "Feature",
    "geometry": {
       "type": "Point",
       "coordinates":  [ -1.25522,6.89428 ]
    },
    "properties": {
    "Region":"Ashanti",
    "District":"Sekyere Afram Plains",
    "FacilityName":"Peace and Comfort Maternity Clinic",
    "Type":"Maternity Home",
    "Town":"Kumawu Bodomasi",
    "Ownership":"Private"
    }
  },
  {
    "type": "Feature",
    "geometry": {
       "type": "Point",
       "coordinates":  [ -2,7 ]
    },
    "properties": {
    "Region":"Ashanti",
    "District":"Atwima-Nwabiagya",
    "FacilityName":"Peace Homeo Medical Centre",
    "Type":"Clinic",
    "Town":"Ntensere",
    "Ownership":"Private"
    }
  },
  {
    "type": "Feature",
    "geometry": {
       "type": "Point",
       "coordinates":  [ -1.31086,6.52668 ]
    },
    "properties": {
    "Region":"Ashanti",
    "District":"Ejisu-Juaben Municipal",
    "FacilityName":"Peminase Maternity Home",
    "Type":"Maternity Home",
    "Town":"Peminase",
    "Ownership":"Government"
    }
  },
  {
    "type": "Feature",
    "geometry": {
       "type": "Point",
       "coordinates":  [ -1.95239,7.00378 ]
    },
    "properties": {
    "Region":"Ashanti",
    "District":"Ahafo-Ano South",
    "FacilityName":"Pokukrom Health Centre",
    "Type":"Health Centre",
    "Town":"Pokukrom",
    "Ownership":"Government"
    }
  },
  {
    "type": "Feature",
    "geometry": {
       "type": "Point",
       "coordinates":  [ -1.26672,6.51556 ]
    },
    "properties": {
    "Region":"Ashanti",
    "District":"Asante-Akim North Municipal",
    "FacilityName":"Praaso Health Centre",
    "Type":"Health Centre",
    "Town":"Praaso",
    "Ownership":"Government"
    }
  },
  {
    "type": "Feature",
    "geometry": {
       "type": "Point",
       "coordinates":  [ -1.67263,6.95019 ]
    },
    "properties": {
    "Region":"Ashanti",
    "District":"Offinso Municipal",
    "FacilityName":"Quality Care Clinic",
    "Type":"Clinic",
    "Town":"Offinso Adikuro",
    "Ownership":"Private"
    }
  },
  {
    "type": "Feature",
    "geometry": {
       "type": "Point",
       "coordinates":  [ -1.47869,6.72345 ]
    },
    "properties": {
    "Region":"Ashanti",
    "District":"Ejisu-Juaben Municipal",
    "FacilityName":"Queen Victoria Maternity Home and Clinic",
    "Type":"Maternity Home",
    "Town":"Serwaa Akura",
    "Ownership":"Private"
    }
  },
  {
    "type": "Feature",
    "geometry": {
       "type": "Point",
       "coordinates":  [ -1.66393,6.20121 ]
    },
    "properties": {
    "Region":"Ashanti",
    "District":"Obuasi Municipal",
    "FacilityName":"Redemption Bible Way Clinic and Laboratory",
    "Type":"Clinic",
    "Town":"Rams Hill",
    "Ownership":"Private"
    }
  },
  {
    "type": "Feature",
    "geometry": {
       "type": "Point",
       "coordinates":  [ -1.98979,6.34571 ]
    },
    "properties": {
    "Region":"Ashanti",
    "District":"Amansie West",
    "FacilityName":"Resolute Amansie",
    "Type":"Clinic",
    "Town":"Manso Nkran",
    "Ownership":"Quasi-Government"
    }
  },
  {
    "type": "Feature",
    "geometry": {
       "type": "Point",
       "coordinates":  [ -1.52192,6.71394 ]
    },
    "properties": {
    "Region":"Ashanti",
    "District":"Ejisu-Juaben Municipal",
    "FacilityName":"Rev. Walker Medical Centre",
    "Type":"Clinic",
    "Town":"Kokobra",
    "Ownership":"Private"
    }
  },
  {
    "type": "Feature",
    "geometry": {
       "type": "Point",
       "coordinates":  [ -1.12042,6.52025 ]
    },
    "properties": {
    "Region":"Ashanti",
    "District":"Asante-Akim South",
    "FacilityName":"Rose Maternity Home",
    "Type":"Maternity Home",
    "Town":"Obogu",
    "Ownership":"Private"
    }
  },
  {
    "type": "Feature",
    "geometry": {
       "type": "Point",
       "coordinates":  [ -1.89095,7.08809 ]
    },
    "properties": {
    "Region":"Ashanti",
    "District":"Ahafo-Ano South",
    "FacilityName":"Sabronum  Health Centre",
    "Type":"Health Centre",
    "Town":"Sabronum",
    "Ownership":"Government"
    }
  },
  {
    "type": "Feature",
    "geometry": {
       "type": "Point",
       "coordinates":  [ -1.55514,7.08676 ]
    },
    "properties": {
    "Region":"Ashanti",
    "District":"Sekyere South",
    "FacilityName":"Sacred Heart Maternity Clinic",
    "Type":"Clinic",
    "Town":"Bepoase",
    "Ownership":"CHAG"
    }
  },
  {
    "type": "Feature",
    "geometry": {
       "type": "Point",
       "coordinates":  [ -2.02993,6.75871 ]
    },
    "properties": {
    "Region":"Ashanti",
    "District":"Atwima-Mponua",
    "FacilityName":"Saakrom Health Centre",
    "Type":"Health Centre",
    "Town":"Saakrom",
    "Ownership":"Government"
    }
  },
  {
    "type": "Feature",
    "geometry": {
       "type": "Point",
       "coordinates":  [ -1.52521,7.05213 ]
    },
    "properties": {
    "Region":"Ashanti",
    "District":"Sekyere South",
    "FacilityName":"Salvation Army Clinic",
    "Type":"Hospital",
    "Town":"Wiamoase",
    "Ownership":"CHAG"
    }
  },
  {
    "type": "Feature",
    "geometry": {
       "type": "Point",
       "coordinates":  [ -1.44302,6.97086 ]
    },
    "properties": {
    "Region":"Ashanti",
    "District":"Mampong Municipal",
    "FacilityName":"SDA Clinic Apaa",
    "Type":"Clinic",
    "Town":"Apaa",
    "Ownership":"CHAG"
    }
  },
  {
    "type": "Feature",
    "geometry": {
       "type": "Point",
       "coordinates":  [ -1.3911,6.3104 ]
    },
    "properties": {
    "Region":"Ashanti",
    "District":"Bekwai Municipal",
    "FacilityName":"SDA Hospital",
    "Type":"Hospital",
    "Town":"Dominase",
    "Ownership":"CHAG"
    }
  },
  {
    "type": "Feature",
    "geometry": {
       "type": "Point",
       "coordinates":  [ -1.54161,6.68001 ]
    },
    "properties": {
    "Region":"Ashanti",
    "District":"Ejisu-Juaben Municipal",
    "FacilityName":"SDA Hospital",
    "Type":"Hospital",
    "Town":"Onwe",
    "Ownership":"CHAG"
    }
  },
  {
    "type": "Feature",
    "geometry": {
       "type": "Point",
       "coordinates":  [ -1.50964,7.05322 ]
    },
    "properties": {
    "Region":"Ashanti",
    "District":"Sekyere South",
    "FacilityName":"SDA Hospital Asamang",
    "Type":"Hospital",
    "Town":"Asamang",
    "Ownership":"CHAG"
    }
  },
  {
    "type": "Feature",
    "geometry": {
       "type": "Point",
       "coordinates":  [ -1.43311,6.90258 ]
    },
    "properties": {
    "Region":"Ashanti",
    "District":"Sekyere South",
    "FacilityName":"SDA Hospital Wiamoase",
    "Type":"Hospital",
    "Town":"Wiamose",
    "Ownership":"CHAG"
    }
  },
  {
    "type": "Feature",
    "geometry": {
       "type": "Point",
       "coordinates":  [ -1.57912,7.31352 ]
    },
    "properties": {
    "Region":"Ashanti",
    "District":"Ejura Sekyeredumasi",
    "FacilityName":"Sekyedumase Health Centre",
    "Type":"Health Centre",
    "Town":"Sekyedumase Health Centre",
    "Ownership":"Government"
    }
  },
  {
    "type": "Feature",
    "geometry": {
       "type": "Point",
       "coordinates":  [ -1.37465,6.92692 ]
    },
    "properties": {
    "Region":"Ashanti",
    "District":"Sekyere East",
    "FacilityName":"Sekyere Health Centre",
    "Type":"Health Centre",
    "Town":"Sekyere",
    "Ownership":"Government"
    }
  },
  {
    "type": "Feature",
    "geometry": {
       "type": "Point",
       "coordinates":  [ -1.37494,6.92646 ]
    },
    "properties": {
    "Region":"Ashanti",
    "District":"Sekyere East",
    "FacilityName":"Sekyere Methodist Clinic",
    "Type":"Clinic",
    "Town":"Sekyere",
    "Ownership":"CHAG"
    }
  },
  {
    "type": "Feature",
    "geometry": {
       "type": "Point",
       "coordinates":  [ -1.32507,6.80818 ]
    },
    "properties": {
    "Region":"Ashanti",
    "District":"Sekyere East",
    "FacilityName":"Senchie Methodist Clinic",
    "Type":"Clinic",
    "Town":"Senkyi",
    "Ownership":"CHAG"
    }
  },
  {
    "type": "Feature",
    "geometry": {
       "type": "Point",
       "coordinates":  [ -1.91797,6.25351 ]
    },
    "properties": {
    "Region":"Ashanti",
    "District":"Amansie West",
    "FacilityName":"Shalom Clinic",
    "Type":"Health Centre",
    "Town":"Watreso",
    "Ownership":"CHAG"
    }
  },
  {
    "type": "Feature",
    "geometry": {
       "type": "Point",
       "coordinates":  [ -1.36645,6.36494 ]
    },
    "properties": {
    "Region":"Ashanti",
    "District":"Bekwai Municipal",
    "FacilityName":"Shalom Methodist Clinic",
    "Type":"Clinic",
    "Town":"Nsuaem #2",
    "Ownership":"CHAG"
    }
  },
  {
    "type": "Feature",
    "geometry": {
       "type": "Point",
       "coordinates":  [ -1.58045,6.11499 ]
    },
    "properties": {
    "Region":"Ashanti",
    "District":"Adansi South",
    "FacilityName":"Sikaman Health Centre",
    "Type":"Health Centre",
    "Town":"Sikaman",
    "Ownership":"Government"
    }
  },
  {
    "type": "Feature",
    "geometry": {
       "type": "Point",
       "coordinates":  [ -1.39703,7.05921 ]
    },
    "properties": {
    "Region":"Ashanti",
    "District":"Mampong Municipal",
    "FacilityName":"Sister Philipa Maternity Home",
    "Type":"Maternity Home",
    "Town":"Mampong Kokoase",
    "Ownership":"Private"
    }
  },
  {
    "type": "Feature",
    "geometry": {
       "type": "Point",
       "coordinates":  [ -2.30317,6.62201 ]
    },
    "properties": {
    "Region":"Ashanti",
    "District":"Atwima-Mponua",
    "FacilityName":"Sreso Tinpom Health Centre",
    "Type":"Health Centre",
    "Town":"Sreso Tinpom",
    "Ownership":"Government"
    }
  },
  {
    "type": "Feature",
    "geometry": {
       "type": "Point",
       "coordinates":  [ -1.32026,6.79774 ]
    },
    "properties": {
    "Region":"Ashanti",
    "District":"Sekyere East",
    "FacilityName":"St Luke Clinic",
    "Type":"Clinic",
    "Town":"Seniagya",
    "Ownership":"CHAG"
    }
  },
  {
    "type": "Feature",
    "geometry": {
       "type": "Point",
       "coordinates":  [ -1.49782,6.63994 ]
    },
    "properties": {
    "Region":"Ashanti",
    "District":"Ejisu-Juaben Municipal",
    "FacilityName":"St. Annes Maternity Clinic",
    "Type":"Clinic",
    "Town":"Donyina",
    "Ownership":"CHAG"
    }
  },
  {
    "type": "Feature",
    "geometry": {
       "type": "Point",
       "coordinates":  [ -1.76006,6.84578 ]
    },
    "properties": {
    "Region":"Ashanti",
    "District":"Ahafo-Ano South",
    "FacilityName":"St. Anns Maternity Home",
    "Type":"Maternity Home",
    "Town":"Essibey Nkwata",
    "Ownership":"Private"
    }
  },
  {
    "type": "Feature",
    "geometry": {
       "type": "Point",
       "coordinates":  [ -1.58011,7.22643 ]
    },
    "properties": {
    "Region":"Ashanti",
    "District":"Ejura Sekyeredumasi",
    "FacilityName":"St. Anthony Maternity Clinic",
    "Type":"Maternity Home",
    "Town":"Anyinasu",
    "Ownership":"Government"
    }
  },
  {
    "type": "Feature",
    "geometry": {
       "type": "Point",
       "coordinates":  [ -1.87428,6.88014 ]
    },
    "properties": {
    "Region":"Ashanti",
    "District":"Ahafo-Ano South",
    "FacilityName":"St. Edwards Clinic",
    "Type":"Health Centre",
    "Town":"Adwinyama",
    "Ownership":"CHAG"
    }
  },
  {
    "type": "Feature",
    "geometry": {
       "type": "Point",
       "coordinates":  [ -2.05678,6.87183 ]
    },
    "properties": {
    "Region":"Ashanti",
    "District":"Ahafo-Ano South",
    "FacilityName":"St. Johns Clinic",
    "Type":"Health Centre",
    "Town":"Domeabra",
    "Ownership":"CHAG"
    }
  },
  {
    "type": "Feature",
    "geometry": {
       "type": "Point",
       "coordinates":  [ -1.49126,6.77928 ]
    },
    "properties": {
    "Region":"Ashanti",
    "District":"Kwabre",
    "FacilityName":"St. Joseph's Clinic.",
    "Type":"Clinic",
    "Town":"Abira",
    "Ownership":"CHAG"
    }
  },
  {
    "type": "Feature",
    "geometry": {
       "type": "Point",
       "coordinates":  [ -1.68137,6.20723 ]
    },
    "properties": {
    "Region":"Ashanti",
    "District":"Obuasi Municipal",
    "FacilityName":"St. Jude Hospital  Ltd.",
    "Type":"Hospital",
    "Town":"Bedieso-Obuasi",
    "Ownership":"Private"
    }
  },
  {
    "type": "Feature",
    "geometry": {
       "type": "Point",
       "coordinates":  [ -1.34637,7.53953 ]
    },
    "properties": {
    "Region":"Ashanti",
    "District":"Ejura Sekyeredumasi",
    "FacilityName":"St. Luke Hospital Kasei",
    "Type":"Hospital",
    "Town":"Kasei",
    "Ownership":"CHAG"
    }
  },
  {
    "type": "Feature",
    "geometry": {
       "type": "Point",
       "coordinates":  [ -1.88154,6.41337 ]
    },
    "properties": {
    "Region":"Ashanti",
    "District":"Amansie West",
    "FacilityName":"St. Martin's  Hospital",
    "Type":"Hospital",
    "Town":"Agroyesum",
    "Ownership":"CHAG"
    }
  },
  {
    "type": "Feature",
    "geometry": {
       "type": "Point",
       "coordinates":  [ -2.10902,6.31346 ]
    },
    "properties": {
    "Region":"Ashanti",
    "District":"Amansie West",
    "FacilityName":"St. Martin's Catholic Clinic",
    "Type":"Clinic",
    "Town":"Abuoso",
    "Ownership":"CHAG"
    }
  },
  {
    "type": "Feature",
    "geometry": {
       "type": "Point",
       "coordinates":  [ -1.36836,6.45121 ]
    },
    "properties": {
    "Region":"Ashanti",
    "District":"Bekwai Municipal",
    "FacilityName":"St. Mary's Clinic",
    "Type":"Clinic",
    "Town":"Yapesa",
    "Ownership":"CHAG"
    }
  },
  {
    "type": "Feature",
    "geometry": {
       "type": "Point",
       "coordinates":  [ -1.75623,6.85935 ]
    },
    "properties": {
    "Region":"Ashanti",
    "District":"Ahafo-Ano South",
    "FacilityName":"St. Michael Clinic",
    "Type":"Clinic",
    "Town":"Dwenwoho",
    "Ownership":"Private"
    }
  },
  {
    "type": "Feature",
    "geometry": {
       "type": "Point",
       "coordinates":  [ -2,7 ]
    },
    "properties": {
    "Region":"Ashanti",
    "District":"Atwima-Nwabiagya",
    "FacilityName":"St. Micheal Maternity Home",
    "Type":"Maternity Home",
    "Town":"Achiase",
    "Ownership":"Private"
    }
  },
  {
    "type": "Feature",
    "geometry": {
       "type": "Point",
       "coordinates":  [ -1.68167,6.93135 ]
    },
    "properties": {
    "Region":"Ashanti",
    "District":"Offinso Municipal",
    "FacilityName":"St. Patricks Hospital",
    "Type":"Hospital",
    "Town":"Offinso",
    "Ownership":"CHAG"
    }
  },
  {
    "type": "Feature",
    "geometry": {
       "type": "Point",
       "coordinates":  [ -2.04218,6.53511 ]
    },
    "properties": {
    "Region":"Ashanti",
    "District":"Atwima-Mponua",
    "FacilityName":"St. Peters Clinic",
    "Type":"Clinic",
    "Town":"Ntobroso",
    "Ownership":"CHAG"
    }
  },
  {
    "type": "Feature",
    "geometry": {
       "type": "Point",
       "coordinates":  [ -1.66669,6.34331 ]
    },
    "properties": {
    "Region":"Ashanti",
    "District":"Amansie Central",
    "FacilityName":"St. Peters' Hospital",
    "Type":"Hospital",
    "Town":"Jacobu",
    "Ownership":"CHAG"
    }
  },
  {
    "type": "Feature",
    "geometry": {
       "type": "Point",
       "coordinates":  [ -1.4951,6.4804 ]
    },
    "properties": {
    "Region":"Ashanti",
    "District":"Bekwai Municipal",
    "FacilityName":"St. Stephen's Clinic",
    "Type":"Clinic",
    "Town":"Huntade",
    "Ownership":"Private"
    }
  },
  {
    "type": "Feature",
    "geometry": {
       "type": "Point",
       "coordinates":  [ -1.61093,6.76359 ]
    },
    "properties": {
    "Region":"Ashanti",
    "District":"Afigya-Kwabre",
    "FacilityName":"St. Theresa's Maternity Home",
    "Type":"Maternity Home",
    "Town":"Atimatim",
    "Ownership":"Private"
    }
  },
  {
    "type": "Feature",
    "geometry": {
       "type": "Point",
       "coordinates":  [ -1.77649,6.20804 ]
    },
    "properties": {
    "Region":"Ashanti",
    "District":"Amansie Central",
    "FacilityName":"St. Thomas General and Maternity Clinic",
    "Type":"Clinic",
    "Town":"Hia",
    "Ownership":"CHAG"
    }
  },
  {
    "type": "Feature",
    "geometry": {
       "type": "Point",
       "coordinates":  [ -1.12747,7.00714 ]
    },
    "properties": {
    "Region":"Ashanti",
    "District":"Sekyere Afram Plains",
    "FacilityName":"St. Vincent Clinic",
    "Type":"Clinic",
    "Town":"Drobonso",
    "Ownership":"CHAG"
    }
  },
  {
    "type": "Feature",
    "geometry": {
       "type": "Point",
       "coordinates":  [ -2.26676,6.81613 ]
    },
    "properties": {
    "Region":"Ashanti",
    "District":"Ahafo-Ano North",
    "FacilityName":"Subriso Health Centre",
    "Type":"Health Centre",
    "Town":"Subriso",
    "Ownership":"Government"
    }
  },
  {
    "type": "Feature",
    "geometry": {
       "type": "Point",
       "coordinates":  [ -1.48104,6.72023 ]
    },
    "properties": {
    "Region":"Ashanti",
    "District":"Ejisu-Juaben Municipal",
    "FacilityName":"Super Care Hospital",
    "Type":"Hospital",
    "Town":"Krapa-Ejisu",
    "Ownership":"Private"
    }
  },
  {
    "type": "Feature",
    "geometry": {
       "type": "Point",
       "coordinates":  [ -2.39662,6.49705 ]
    },
    "properties": {
    "Region":"Ashanti",
    "District":"Atwima-Mponua",
    "FacilityName":"Tano-Odumasi Health Centre",
    "Type":"Health Centre",
    "Town":"Tano-Odumasi",
    "Ownership":"CHAG"
    }
  },
  {
    "type": "Feature",
    "geometry": {
       "type": "Point",
       "coordinates":  [ -2.16102,6.99966 ]
    },
    "properties": {
    "Region":"Ashanti",
    "District":"Ahafo-Ano North",
    "FacilityName":"Tepa District Hospital",
    "Type":"District Hospital",
    "Town":"Tepa",
    "Ownership":"Government"
    }
  },
  {
    "type": "Feature",
    "geometry": {
       "type": "Point",
       "coordinates":  [ -1.63735,7.03743 ]
    },
    "properties": {
    "Region":"Ashanti",
    "District":"Afigya-Kwabre",
    "FacilityName":"Tetrem Health Centre",
    "Type":"Health Centre",
    "Town":"Tetrem",
    "Ownership":"Government"
    }
  },
  {
    "type": "Feature",
    "geometry": {
       "type": "Point",
       "coordinates":  [ -1.67233,6.20762 ]
    },
    "properties": {
    "Region":"Ashanti",
    "District":"Obuasi Municipal",
    "FacilityName":"The Queens Maternity Home",
    "Type":"Maternity Home",
    "Town":"New Estate-Obuasi",
    "Ownership":"Private"
    }
  },
  {
    "type": "Feature",
    "geometry": {
       "type": "Point",
       "coordinates":  [ -1.51337,6.73154 ]
    },
    "properties": {
    "Region":"Ashanti",
    "District":"Ejisu-Juaben Municipal",
    "FacilityName":"Tikrom Clinic",
    "Type":"Clinic",
    "Town":"Tikrom",
    "Ownership":"Government"
    }
  },
  {
    "type": "Feature",
    "geometry": {
       "type": "Point",
       "coordinates":  [ -1.56537,6.45139 ]
    },
    "properties": {
    "Region":"Ashanti",
    "District":"Bekwai Municipal",
    "FacilityName":"Tinkwamah Maternity Home",
    "Type":"Maternity Home",
    "Town":"Amoaful",
    "Ownership":"Private"
    }
  },
  {
    "type": "Feature",
    "geometry": {
       "type": "Point",
       "coordinates":  [ -2,7 ]
    },